lat,lng,name,osm_accuracy,population
52.6510546,90.101159,Абаза,0.593507677970318,17111
53.7209024,91.442435,Абакан,0.609790990910155,165183
53.6828,53.655701,Абдулино,0.58718281351088,20663
44.8649528,38.1578189,Абинск,0.597864397222364,34926
56.5254597,52.9972512,Агрыз,0.596614665199801,19299
43.4253834,39.9237036,Адлер,0.536537590075626,109539
54.8629555,53.0792275,Азнакаево,0.595057210740555,34859
47.0884477,39.4240745591304,Азов,0.633784277105689,82882
47.268696,39.861362,Аксай,0.589467215043441,41984
57.850811,61.695,Алапаевск,0.613774447066366,38198
54.84582955,46.5627484284573,Алатырь,0.5886688924656,38202
58.608414,125.388222,Алдан,0.605947875397728,21277
52.4970221,82.7730755,Алейск,0.598513283078841,28528
56.3962287,38.7111103,Александров,0.614190064709064,61544
59.1632189,57.5806324455949,Александровск,0.589053399644964,14868
50.6299364,38.6867154,Алексеевка,0.591445708860836,39026
54.5028103,37.0667213,Алексин,0.593120203849316,61738
55.554956,98.6654191,Алзамай,0.598401892483957,6751
44.677112,34.4095393,Алушта,0.602915167891094,29078
54.9005008,52.2963777,Альметьевск,0.606007033040445,146309
64.7316875,177.5060925,Анадырь,0.591918180647331,13053
44.894272,37.316887,Анапа,0.642924076130785,58983
52.5311117,103.8826109,Ангарск,0.620687137820104,233765
56.646801,32.26532,Андреаполь,0.595526257139649,8265
56.077808,86.019356,Анжеро-Судженск,0.691975472245134,76669
67.568626,33.404392,Апатиты,0.538748587005153,59690
56.6954649,60.8504536,Арамиль,0.603533765249116,14227
43.2950455,45.8688918,Аргун,0.595127795668338,29528
54.8436669,46.2386314,Ардатов,0.588374966721875,9400
55.3989463,43.8408129,Арзамас,0.614842447172448,106367
51.942913,43.489098,Аркадак,0.588793346941117,12846
44.9993585,41.1294061,Армавир,0.625553416979574,188897
44.1608008,133.2889113,Арсеньев,0.602290298739534,56742
56.0909916,49.8771828,Арск,0.591620199086833,18114
54.116268,86.270058,Артышта,0.575105590586511,263
43.3570377,132.1853629,Артём,0.605651232440788,106460
48.60083235,37.9940003223644,Артёмовск,0.494973508413046,74072
57.3431854,61.8775035,Артёмовский,0.604328770013058,30336
64.543022,40.537121,Архангельск,0.683074053451371,348716
57.0052746,61.4580765,Асбест,0.609063811524401,70067
56.999187,86.14167,Асино,0.5939886199299,25614
46.3652486,48.0552168617783,Астрахань,0.670438975865683,520662
51.882442,45.012573,Аткарск,0.595268723472209,25620
48.2877616,46.1744879,Ахтубинск,0.592998616910351,41898
56.2694846,90.4953964,Ачинск,0.625179100859674,109156
54.9908896,57.2780531,Аша,0.60201754214395,31916
56.4609007,138.1817339,Аян,0.590439032346601,1895
59.3969942,35.940425,Бабаево,0.596338595760061,12074
51.7161749,105.8635328,Бабушкин,0.598401892483957,4542
54.4030866,53.2357016,Бавлы,0.592730278313856,22109
55.466447,119.9538825,Багдарин,0.435,4875
51.522598,104.149071,Байкальск,0.599812710008018,13589
61.6808261,96.3830221,Байкит,0.576901458724872,3513
43.68587385,43.544624025,Баксан,0.587156057530702,36857
55.1783579,36.6575564,Балабаново,0.589131201968831,26337
52.01812,47.819141,Балаково,0.612899469290669,199576
55.8036225,37.9646488,Балашиха,0.630236610745118,215353
51.537084,43.1717621,Балашов,0.602520153690846,82222
51.578789,116.646042,Балей,0.595268723472209,12536
55.3567611,78.350348,Барабинск,0.599375288729948,30250
53.347402,83.7784496,Барнаул,0.67119598549726,635585
53.6540758,47.1013737,Барыш,0.584392055045225,17149
67.654907,134.635071,Батагай,0.595759448486215,3647
47.138527,39.742348,Батайск,0.611147618423012,112400
56.9738846,29.8845309,Бежаницы,0.507849375884465,4141
57.781357,36.692535,Бежецк,0.600892870837439,24517
68.53701,146.187286,Белая Гора,0.675032469745901,2058
48.1751778,40.7902124,Белая Калитва,0.689089291003882,43688
50.5955595,36.5873394,Белгород,0.664911139729077,39026
52.9669338,43.4130625,Белинский,0.586103409400246,8567
54.419323,86.303429,Белово,0.598691090340636,76752
50.921326,128.47287,Белогорск,0.603595284867638,68220
60.03199,37.7842189,Белозерск,0.603963118581715,9614
51.9994856,84.9860861,Белокуриха,0.596361648836586,15072
64.5216684,34.7625835,Беломорск,0.59186861699418,11217
53.9680705,58.4099549,Белорецк,0.607813311092527,68804
44.7614149,39.8712943,Белореченск,0.603574785150379,53891
63.7156353,66.6667691,Белоярский,0.596820908781127,20283
55.833073,32.939487,Белый,0.598200880675279,3771
54.7437662,83.0626890786016,Бердск,0.593615777768699,98809
59.4084171,56.8036958,Березники,0.617565036172246,156350
63.935246,65.053566,Берёзово,0.59231326148336,7050
61.0183491,138.3158678,Берёзовый,0.435,29441
43.1875572,44.5375689,Беслан,0.60612517825114,36724
52.5394905,85.2148673,Бийск,0.623033871119716,203826
46.819363,134.254822,Бикин,0.596499786509743,17156
48.7881668,132.9282082,Биробиджан,0.586699419665253,75419
50.290527,127.527161,Благовещенск,0.619684962903729,214397
45.100857,43.420868,Благодарный,0.587768525385992,32736
51.0967999,40.0307798,Бобров,0.589544497059049,19738
56.7683407,62.0520774,Богданович,0.603451643452326,31752
53.773571,38.126965,Богородицк,0.59086888056666,31897
56.4939062,38.1825572,Богородское,0.581027099654892,109432
56.211464,89.531639,Боготол,0.600807151213923,21029
49.9324498,40.5544754,Богучар,0.594560839740484,11811
57.8500317,114.2038284,Бодайбо,0.602269360264941,15331
59.4729021,33.8489952,Бокситогорск,0.60172244801276,16593
54.9609,49.0334,Болгар,0.785388247880598,8650
57.885204,34.049603,Бологое,0.604044562134197,23499
55.671566,84.38855,Болотное,0.596338595760061,16969
53.448994,36.002232,Болхов,0.595619639580805,11421
43.1121194,132.3509104,Большой Камень (ЗАТО),0.693922356411331,37918
56.3548,44.0593,Бор,0.504602898400251,65585
50.3851808,116.5330685,Борзя,0.598868386110141,31376
51.368015,42.075169,Борисоглебск,0.604409732125682,65585
58.389009,33.9068275,Боровичи,0.60201754214395,54731
55.8997187,94.8930452,Бородино,0.599023102632345,17423
56.1517085,101.6334907,Братск,0.625251261504111,246348
55.4219938,38.2590612,Бронницы,0.612011890596116,21102
53.2423778,34.3668288,Брянск,0.659014203478658,415640
54.5384152,52.7955953,Бугульма,0.606282353725223,89144
53.6208,52.417,Бугуруслан,0.596107589494971,52249
44.780533,44.163357,Будённовск,0.600785702666857,62073
52.788502,52.253899,Бузулук,0.601996510784124,82816
54.9722866,48.2928964,Буинск,0.594084359598663,20342
58.4781,41.5166,Буй,0.557384640197825,24011
50.828491,40.587322,Бутурлиновка,0.496262607155154,27208
57.9791414,33.2537994,Валдай,0.594821342104523,16099
50.211296,38.100227,Валуйки,0.599199447242987,35322
60.345203,102.28093,Ванавара,0.577811294327093,2906
49.090481,140.260864,Ванино,0.585912554659983,15314
55.6045223,31.1949976,Велиж,0.596958022073212,7620
56.342361,30.527922,Великие Луки,0.758345464804485,98778
60.7612852,46.3014666,Великий Устюг,0.708714353877609,31664
61.0756446,42.0979582,Вельск,0.597231336930754,23885
58.0721045,54.6674847,Верещагино,0.590969587123989,22760
55.343238,36.185145,Верея,0.607506299750977,5368
63.4497609,120.3146678,Верхневилюйск,0.581820093574305,21002
53.878002,59.21138,Верхнеуральск,0.603881567263997,9459
57.3748048,59.9320354,Верхний Тагил,0.69134095326352,11843
56.052029,60.226448,Верхний Уфалей,0.690807151213923,30504
58.043598,60.554832,Верхняя Салда,0.693840751103981,46240
58.3605,59.81823,Верхняя Тура,0.6920805931974,9468
58.861702,60.809338,Верхотурье,0.609530938206308,8815
58.6637264,37.2626496,Весьегонск,0.593483532074075,7330
63.754082,121.626549,Вилюйск,0.604893283996417,10233
56.124722,101.171951,Вихоревка,0.598312634829874,22528
57.20439895,41.9132782222458,Вичуга,0.581942947535096,37609
43.1150678,131.8855768,Владивосток,0.714840167312577,592069
43.024593,44.68211,Владикавказ,0.658553789525574,311635
56.1288899,40.4075203,Владимир,0.680885078989713,61544
48.64820995,44.3857637990291,Волгоград,0.699162200878825,1021244
47.5414072,42.2281048286475,Волгодонск,0.603250952418196,170621
57.440105,41.157181,Волгореченск,0.586483354941348,17108
55.8818366,48.3462942305733,Волжск,0.582558907083044,314436
48.782102,44.7779843,Волжский,0.610381308736396,314436
59.218876,39.893276,Вологда,0.653284953368342,301642
56.0360129,35.9583358,Волоколамск,0.632097253899569,23386
59.9275868,32.3276803,Волхов,0.612828931486835,47344
50.2805047,36.9452503,Волчанск,0.493287070859554,10008
52.042755,47.386032,Вольск,0.604288249038967,66520
67.494957,64.0401,Воркута,0.623880299737977,70551
51.6605982,39.2005858,Воронеж,0.696479374942082,19738
55.322518,38.6816824,Воскресенск,0.622764144652578,17842
57.052505,53.990612,Воткинск,0.601277140592377,100034
63.844337,57.300171,Вуктыл,0.588401198856501,12357
60.709217,28.744051,Выборг,0.691047260306909,80013
55.318774,42.1800408,Выкса,0.596637615264998,56196
61.006355,36.451122,Вытегра,0.595339066716716,10490
57.588303,34.5714,Вышний Волочёк,0.58672863886048,46211
47.533455,134.757874,Вяземский,0.593314245408645,14556
56.24514,42.137577,Вязники,0.600506190172488,41252
55.2103563,34.2995187,Вязьма,0.620687137820104,57103
56.2229946,51.0749038,Вятские Поляны,0.6872540585529,35159
56.5585501,40.1205669,Гаврилов Посад,0.677129289930119,6434
57.3032827,39.8537697,Гаврилов-Ям,0.67533641853189,17792
55.553383,34.996864,Гагарин,0.604893283996417,31721
58.3781,42.3499,Галич,0.613250952418195,17346
59.5706273,30.1305083,Гатчина,0.643869640553369,92566
58.743066,27.8156854,Гдов,0.603574785150379,4379
44.5609447,38.0766832,Геленджик,0.616377222974422,54813
44.1478944,43.4741718,Георгиевск,0.59952873956348,72126
58.1401196,52.6464388,Глазов,0.605730476938202,95835
55.6149602,36.9887625,Голицыно,0.602790699859483,17447
51.957775,85.963653,Горно-Алтайск,0.715077933807857,62861
58.374001,58.325058,Горнозаводск,0.588689017844055,12334
51.0004641,81.4638583,Горняк,0.591719686435913,13040
46.082851,41.934269,Городовиковск,0.58314805612852,9565
56.20657,42.679035,Гороховец,0.602478425592182,14015
44.6342653,39.1363613,Горячий Ключ,0.687639049990064,30093
58.566597,57.833389,Гремячинск,0.5885060158875,11005
43.3197031,45.6934308,Грозный,0.680591953737414,271596
52.49612,39.955162,Грязи,0.588715116679665,46798
58.8841803,40.2512646,Грязовец,0.602164561056945,15528
58.842407,57.555058,Губаха,0.590843678194862,27544
51.283714,37.53466,Губкин,0.590413653553007,88562
64.4337824,76.4898086,Губкинский,0.592017188539101,23340
43.3486103,46.095945,Гудермес,0.598513283078841,45643
48.0530303,39.9441925,Гуково,0.595127795668338,67268
45.3565119,40.6962256,Гулькевичи,0.59698084466165,35225
54.7745571,20.6037041,Гурьевск,0.598245606656467,12433
51.289516,106.527008,Гусиноозёрск,0.597819393642874,23280
55.6149968,40.6708665,Гусь-Хрустальный,0.694003853810806,60773
54.218571,55.026661,Давлеканово,0.599506841393283,24040
43.6590048,39.6544373,Дагомыс,0.453892137025745,74737
56.258656,62.939163,Далматово,0.59515130602505,13913
44.559457,135.5759241,Дальнегорск,0.600978471405883,37503
45.9337195,133.7349056,Дальнереченск,0.602582692914246,27601
58.188808,40.175114,Данилов,0.590641687356554,15861
53.2533095,39.1591798,Данков,0.590768009186741,21056
56.698341,60.086807,Дегтярск,0.602790699859483,15521
55.2643778,31.5178326,Демидов,0.598779801977935,7333
69.303711,139.964523,Депутатский,0.582890478974254,2932
42.057858,48.2887648,Дербент,0.630276506570897,119961
54.1429232,33.284404867503,Десногорск,0.59051510608517,29677
56.2382157,43.4617405,Дзержинск,0.611545248185286,47125
55.959644,92.37542,Дивногорск,0.604064906217356,28271
73.5083894,80.5123816,Диксон,0.50842808811171,548
54.2188995,49.6038982,Димитровград,0.604792856404745,122549
52.12849,35.075439,Дмитриев-Льговский,0.570639694209592,7600
56.3450695,37.5200723,Дмитров,0.615047036237899,61454
57.8288277,29.9611357,Дно,0.594156066877692,9061
58.465281,56.4192325338404,Добрянка,0.594346879412062,35720
47.3241456,142.7979361,Долинск,0.59799921112819,12200
55.4368213,37.7680693,Домодедово,0.613548145105619,96123
48.0158753,37.8013407,Донецк,0.615127553102833,50085
53.965651,38.3183367,Донской,0.589234785857705,64561
54.9148236,33.2989051,Дорогобуж,0.617972174654867,10720
56.74177675,37.1755329696078,Дубна,0.627376019174255,70569
49.06052,44.830776,Дубовка,0.591744533200762,14345
55.1946927,32.4021172794943,Духовщина,0.599747294400208,4370
55.490616,54.863895,Дюртюли,0.596407729137329,31272
53.6003804,34.3335523,Дятьково,0.590616391891651,29438
45.1907635,33.3679049,Евпатория,0.630116768081377,105719
55.3829765,39.0356223,Егорьевск,0.621351436311116,70133
46.7110877,38.2747683,Ейск,0.617565036172246,87771
56.839104,60.60825,Екатеринбург,0.734856450310862,1377738
55.7577131,52.0539938,Елабуга,0.611310595334303,70750
52.6219865,38.5003298,Елец,0.584615563538129,108404
54.5764954,33.1891698,Ельня,0.610528008952929,10095
54.759121,61.313198,Еманжелинск,0.599023102632345,30218
62.598297,50.887928,Емва,0.585857916004479,14574
58.4532212,92.1748169,Енисейск,0.615471094601149,18769
61.275021,108.009712,Ербогачён,0.578028912104563,1965
51.34985,48.275078,Ершов,0.58842741983089,21447
44.0468389,42.8565018,Ессентуки,0.604712396341918,100969
44.1424034,43.0090751,Железноводск,0.594537103017921,24496
56.250938,93.53286,Железногорск,0.612616832398112,26134
56.577915,104.12294,Железногорск-Илимский,0.622774525283461,26134
55.7459388,38.0158304,Железнодорожный,0.601255855011309,151985
51.843933,41.470367,Жердевка,0.581644752348296,15211
66.76564,123.3741,Жиганск,0.581204204372658,3420
53.4005122,49.4955657,Жигулёвск,0.590616391891651,54300
53.748543,34.735447,Жиздра,0.592017188539101,5585
50.978779,44.778908,Жирновск,0.587635896973777,16890
53.7641367,31.4950785,Жуковка,0.46,18269
49.644653,117.329025,Забайкальск,0.585363976054984,12536
50.111154,129.4402341,Завитинск,0.594203825422795,11481
56.509293,66.539261,Заводоуковск,0.592362468990463,25657
57.4909934,42.13964,Заволжск,0.588897499732059,12045
52.387798,38.92672,Задонск,0.591669962835498,9695
55.2866509,52.0056047,Заинск,0.594465837950002,41798
58.501495,27.879011,Залахтовье,0.220430435186894,1079
55.965401,94.708107,Заозёрный,0.598424186714395,10286
56.258968,32.085865,Западная Двина,0.680641687356554,9376
54.7585694,38.8818137,Зарайск,0.617319455825915,24648
56.8149706,61.3205936,Заречный,0.602811461995227,63579
53.707915,84.9348606,Заринск,0.596843782189952,47035
55.7293613,36.8585382,Звенигород,0.625925473457402,16395
48.020645,40.118561,Зверево,0.593314245408645,22416
56.11356,94.589279,Зеленогорск (ЗАТО),0.708479613791445,64343
55.8477605,48.5097031,Зеленодольск,0.604003853810806,97651
44.403175,43.884163,Зеленокумск,0.589467215043441,35790
53.928402,102.052727,Зима,0.601954426522077,32522
55.03463945,59.5292694311903,Златоуст,0.611902139001471,174985
52.426113,31.7390793,Злынка,0.589027443696224,5507
51.1544658,82.1979928,Змеиногорск,0.597548679886816,10569
54.6155775,21.227367,Знаменск,0.59051510608517,29357
56.170071,34.585182,Зубцов,0.612775975104337,6937
58.4060241,51.1388605,Зуевка,0.589079344667183,11198
52.641701,108.1462452,Зырянка,0.435,3170
59.3744139,28.2192542,Ивангород,0.620687137820104,9797
56.9984452,40.9737394,Иваново,0.639815154863199,409277
60.6973287,60.4172583,Ивдель,0.607390775069782,17764
67.467216,86.569756,Игарка,0.41,6183
63.191513,64.424301,Игрим,0.438668254407684,7477
56.866557,53.2094166,Ижевск,0.652502046039442,628117
42.5710804,47.862999,Избербаш,0.599594387429838,56301
57.7103914,27.861682,Изборск,0.503534851269978,789
65.2239948,145.6607722,Известковый,0.435,1536
45.3740796,41.7121154,Изобильный,0.588112029465683,40546
56.23806,96.06694,Иланский,0.597616469883794,16108
49.306286,43.979027,Иловля,0.459448365439565,11568
53.8579402,46.3573236,Инза,0.585308848681566,18547
53.867741,44.371407,Инсар,0.585391521261866,8687
66.039749,60.13158,Инта,0.59550288940501,32021
45.719723,42.916286,Ипатово,0.589698770980334,26055
57.674042,63.063778,Ирбит,0.611832830623064,38352
52.289597,104.280586,Иркутск,0.696101302794776,6751
54.904892,71.259987,Исилькуль,0.594892197524519,25905
54.61506035,83.297275866486,Искитим,0.589790912519065,60072
56.110912,69.473366,Ишим,0.606984724852259,66259
53.454655,56.043995,Ишимбай,0.612899469290669,66259
56.6328248,47.8972462,Йошкар-Ола,0.69612517825114,248688
44.2673637,135.0554977,Кавалерово,0.443532730730458,14437
55.7823547,49.1242266,Казань,0.749591107560981,1216965
57.7019,93.2756,Казачинское,0.393208261767925,3604
50.4259519,41.0161721,Калач,0.591694829650187,26892
48.692699,43.524063,Калач-на-Дону,0.793697681301513,26892
55.049091,74.582428,Калачинск,0.595805981066283,24000
65.200096,31.180172,Калевала,0.503845864878862,3855
54.710128,20.5105838,Калининград,0.721532705657472,6399
51.499947,44.484581,Калининск,0.588191028492999,16442
54.5101087,36.2598115,Калуга,0.670563076626748,325185
57.2400206,37.8404883,Калязин,0.60367721561998,13870
56.2652515,54.1945613,Камбарка,0.5885060158875,11028
53.1850012,44.0529066,Каменка,0.586266530093717,39579
60.9526102,29.1303401,Каменногорск,0.609530938206308,6761
56.415451,61.917797,Каменск-Уральский,0.708457217027449,174710
48.3210807,40.2650679,Каменск-Шахтинский,0.697101012432743,95306
53.7936761,81.3516358,Камень-на-Оби,0.790656854398244,41787
56.3462575,40.997098,Камешково,0.590337454409521,13113
50.06525345,45.3844911592265,Камышин,0.604310760452101,119924
56.8380653,62.7315204168864,Камышлов,0.598099751884054,26875
55.5148161,47.4986307188901,Канаш,0.582190070558131,45608
67.151442,32.4130551,Кандалакша,0.556611051512897,35659
56.205997,95.706787,Канск,0.611850760048463,94230
55.485809,60.209541,Карабаш,0.599550629955958,13151
50.4019239,84.4703498,Карагайский,0.36,6682
53.73447,78.032372,Карасук,0.596912351526941,28929
53.124191,34.996758,Карачев,0.599155408370537,19715
59.0598053,80.8708719,Каргасок,0.433386683132434,24000
55.1929899,80.2828252,Каргат,0.595033664455886,10620
59.7667893,60.0009267,Карпинск,0.606144847119783,29118
53.053261,60.639172,Карталы,0.600376755614508,29136
54.939693,41.39518,Касимов,0.604510785434716,33494
55.8904193,60.7538518,Касли,0.601912313504127,16998
54.753479,58.205784,Катав-Ивановск,0.5,17640
56.290913,62.579082,Катайск,0.594418282083929,14017
58.6981697,59.4810114,Качканар,0.604913349892532,42563
57.361755,37.611454,Кашин,0.601933373610046,16174
54.837449,38.1505119,Кашира,0.618666222364524,41880
55.355125,86.087234,Кемерово,0.637706868738387,532884
64.9458,34.6001,Кемь,0.599287430697433,13061
67.53,165.388,Кепервеем,0.435,263
45.3534002,36.4538645,Керчь,0.65283484516476,147033
51.7190995,94.4300627,Кизел,0.519742426977768,20277
43.1999049,46.8713343,Кизилюрт,0.601042593901044,36187
43.8546727,46.7139329,Кизляр,0.613303502427949,49169
56.8563178,37.3563155038629,Кимры,0.594752639503238,49623
59.3743982,28.5981591,Кингисепп,0.622809181117404,9797
53.219738,50.633228,Кинель,0.586995277267246,34472
57.4431,42.1400999,Кинешма,0.60371814018946,88113
57.776356,108.116295,Киренск,0.603101399892571,12652
56.1592229,38.8721255,Киржач,0.600051974961097,30044
59.8588453,38.3760743,Кириллов,0.600247048658099,7735
59.450325,32.010578,Кириши,0.61172514439991,52826
58.6035257,49.6639029,Киров,0.642999824853446,31888
57.4265271,60.0665927,Кировград,0.605412885771691,21959
52.654755,42.72496,Кирсанов,0.587263011829773,17240
54.0049872,86.6354771,Киселёвск,0.601106649752338,88200
43.9128743,42.7192186,Кисловодск,0.628605565243229,128502
56.3355543,36.7352147,Клин,0.62876926361137,62510
52.758511,32.240097,Клинцы,0.595526257139649,62510
56.3553861,41.3169929828466,Ковров,0.607368650240691,145492
54.0380912,43.9156202,Ковылкино,0.586293674951841,21307
62.26798,74.4889068,Когалым,0.600957082407101,58192
58.596329,99.182915,Кодинск,0.597571284838242,14835
54.037102,35.780102,Козельск,0.579166584106196,18203
56.3324346,46.5462855,Козьмодемьянск,0.594537103017921,21262
68.880638,33.019726,Кола,0.525869947621939,10447
55.0938743,38.7670121,Коломна,0.656128792076246,144642
58.313667,82.903557,Колпашево,0.595829234188374,24126
59.748444,30.604479,Колпино,0.608687544181304,147965
54.665443,86.166115,Кольчугино,0.494064906217356,45804
57.027321,40.377602,Комсомольск,0.585556534477902,8693
50.550877,137.020782,Комсомольск-на-Амуре,0.823045069244238,263906
56.7131572,36.7775654,Конаково,0.598245606656467,41303
62.20929,34.268185,Кондопога,0.599177431740209,32978
54.8028,35.9322,Кондрово,0.588897499732059,16672
53.92099,40.019211,Кораблино,0.586048939755188,12657
45.4635863,39.4487565,Кореновск,0.597548679886816,41179
54.889923,61.407963,Коркино,0.600138750616928,38950
50.810741,37.195316,Короча,0.590768009186741,5877
61.3151659,47.1607626,Коряжма,0.593555941402207,39629
63.456226,48.894211,Кослан,0.367277503353622,2288
64.5873013,30.5969076,Костомукша,0.587129289930119,28433
57.7679158,40.9269141,Кострома,0.657716276461341,268617
47.6332274,43.14109,Котельниково,0.590591086040598,20441
58.3053524,48.3372596,Котельнич,0.605770061011093,24979
61.252151,46.647629,Котлас,0.614172803149122,60562
50.322208,44.801643,Котово,0.588164706733311,24104
56.1210895,38.1457655,Красноармейск,0.609194964270535,26294
60.40546155,57.0820319704652,Красновишерск,0.591570395125034,17129
45.0352566,38.9764814,Краснодар,0.707437895524679,34926
50.096992,118.041344,Краснокаменск,0.600290314647502,55668
58.0812613,55.7586943,Краснокамск,0.595057210740555,52632
48.7045848,44.5637959,Краснослободск,0.589929460205517,16007
59.764631,60.1936117,Краснотурьинск,0.61152722965004,59701
58.357063,60.037445,Красноуральск,0.604551160411183,24973
56.604538,57.771313,Красноуфимск,0.608498545568394,39765
56.0090968,92.8725147,Красноярск,0.692879584384482,1095286
50.9459056,46.972462,Красный Кут,0.680818465513237,14420
47.891552,40.071899,Красный Сулин,0.685432732995189,40866
58.056507,37.114731,Красный Холм,0.684394490383432,5608
50.364742,108.75798,Красный Чикой,0.400804307025449,7063
45.4344413,40.5750274,Кропоткин,0.601404699932922,80743
56.006351,71.511307,Крутинка,0.436855406087553,6878
44.9295889,37.9880177,Крымск,0.608384867578516,57370
56.149551,44.198032,Кстово,0.601063953249507,66641
55.5755486,36.6952802,Кубинка,0.616327230488751,22918
51.478756,57.350796,Кувандык,0.585474083095207,26176
57.0314657,34.1796637,Кувшиново,0.592362468990463,10008
56.0315502,47.2987956,Кугеси,0.422795139465266,12809
59.014606,54.664135,Кудымкар,0.603018699579093,30711
53.112514,46.600727,Кузнецк,0.594465837950002,101666
55.429287,42.511879,Кулебаки,0.5914706663017,35762
52.760975,55.796482,Кумертау,0.599550629955958,62854
57.428844,56.944328,Кунгур,0.604993548211425,67857
54.364929,77.30854,Купино,0.595080748032945,15448
55.51707765,65.459065802296,Курган,0.673079697702428,47974
44.8846971,40.5891773,Курганинск,0.596545763684104,47974
45.2290413,147.8751845,Курильск,0.59114542861095,2070
51.739433,36.179604,Курск,0.654229529701627,7721
54.909466,64.428383,Куртамыш,0.593916717453102,17098
51.6750974,35.6606580678712,Курчатов,0.577874423005468,42691
55.336521,59.445938,Куса,0.59922145488449,18792
58.281757,59.762329,Кушва,0.605452674281383,33027
51.7190995,94.4300627,Кызыл,0.629742426977768,109906
55.723192,60.3671048259304,Кыштым,0.594993548211425,38950
44.6347953,40.7242185,Лабинск,0.600225404268282,62822
66.6596392,66.3861831,Лабытнанги,0.598044083645186,26948
43.9102991,39.3317538,Лазаревское,0.457065093488253,92662
55.4043358,49.5468376,Лаишево,0.592017188539101,7735
56.015093,39.946558,Лакинск,0.592337870147841,15707
61.247257,75.189278,Лангепас,0.596522779384239,41675
61.5179265,30.2038927,Лахденпохья,0.59515130602505,7818
53.0126146,39.127593,Лебедянь,0.588975498982342,20991
50.751953,78.539368,Лениногорск,0.375282445560519,64145
54.6442,86.1668,Ленинск,0.575487195136196,95300
54.665443,86.166115,Ленинск-Кузнецкий,0.694064906217356,101666
60.7145488,114.9172123,Ленск,0.604611673326572,24955
58.63644,59.789658,Лесной,0.610381308736396,52464
45.4747744,133.4182158,Лесозаводск,0.599111338008006,36975
58.223511,92.48597,Лесосибирск,0.601806904893907,61146
52.4253859,37.6089,Ливны,0.597684185399897,50430
52.6041877,39.5936899,Липецк,0.639632675383123,46798
50.982079,39.496941,Лиски,0.598801959950265,55864
57.1244437,35.4665276,Лихославль,0.596637615264998,12259
56.0104473,37.4670831,Лобня,0.612047640248726,74350
60.7339323,33.5457731,Лодейное Поле,0.699344512173748,21053
43.7038,39.5842,Лоо,0.379989495490236,8091
58.732,29.85,Луга,0.55,36409
60.630329,47.255405,Луза,0.5914706663017,11262
55.034821,44.492725,Лукоянов,0.591245684671076,14949
54.9655573,39.0277188,Луховицы,0.609101312224902,29849
56.027885,45.038315,Лысково,0.595198299850714,21882
58.09963345,57.7964506389877,Лысьва,0.5939886199299,67712
51.65978675,35.2611559148271,Льгов,0.582362468990463,21452
59.346325,31.244207,Любань,0.602852965296036,4188
58.35762,40.691818,Любим,0.586510404491649,5553
53.8647156,34.4478141,Людиново,0.591942947535096,40550
59.5604768,150.7988617,Магадан,0.641666116775746,95925
53.4242184,58.983136,Магнитогорск,0.648875003056926,408401
44.6062079,40.104053,Майкоп,0.617581373455144,144055
43.62865135,44.0559924880066,Майский,0.583857951092402,26755
48.61,142.7835,Макаров,0.409552900499061,6393
57.880402,43.80724,Макарьев,0.585474083095207,7114
57.797325,35.87904,Максатиха,0.464934934074513,7485
55.208321,67.252739,Макушино,0.593386853780725,8337
58.844215,32.218636,Малая Вишера,0.681992451472996,12461
52.399578,36.504021,Малоархангельск,0.584699170694571,3872
55.012181,36.4590246,Малоярославец,0.601468380736975,30401
57.663019,112.5367166,Мама,0.46,14432
55.7090757,51.4089032,Мамадыш,0.594513357150021,14432
51.8341377,85.744008,Манжерок,0.435,1500
58.333271,44.761791,Мантурово,0.585281266492977,17479
56.206299,87.751259,Мариинск,0.602665979953099,40522
51.7069911,46.7483653,Маркс ,0.596912351526941,31500
42.9830241,47.5048717,Махачкала,0.665574508553076,577990
53.0591919,32.8500077,Мглин,0.590082774710875,7916
61.035404,76.108215,Мегион,0.59922145488449,49471
62.915024,34.473339,Медвежьегорск,0.593144492479925,15536
51.4049435,57.5803138,Медногорск,0.586645474454481,27253
54.9695,35.857,Медынь,0.592041915680605,8298
53.6863763,88.0703443,Междуреченск,0.606965322239357,101995
55.3368374,41.6314063,Меленки,0.590818465513237,15208
52.8989248,55.8490036,Мелеуз,0.435,61408
55.8878706,52.308443,Менделеевск,0.593892731307879,22075
55.7255585,53.1071815,Мензелинск,0.597049261763261,16474
54.3207145,35.2796334,Мещовск,0.59051510608517,4101
55.065304,60.108337,Миасс,0.620422520469719,151812
62.358238,50.08218,Микунь,0.586429220199727,10732
48.9196264,40.391854,Миллерово,0.602977307771377,36493
44.2107377,43.134969,Минеральные Воды,0.70105688912741,76715
53.700325,91.697235,Минусинск,0.612899469290669,71171
55.0709139,57.5485021,Миньяр,0.598021651470463,10195
62.541077,113.978584,Мирный,0.607947149145931,30259
54.230217,39.027538,Михайлов,0.592974270712376,59153
50.0796329,43.2343877,Михайловка,0.594084359598663,59153
56.444538,59.124191,Михайловск,0.601510798081644,9215
52.8946613,40.5071721,Мичуринск,0.602478425592182,98758
53.7335417,119.7648554,Могоча,0.596545763684104,13228
55.5016383,36.0334703,Можайск,0.632431933582395,31388
56.4427352,52.2138521,Можга,0.591170507919281,47959
43.735584,44.653614,Моздок,0.604105574248771,38748
48.352379,41.828762,Морозовск,0.594844969629969,27644
53.44001255,41.7996583166198,Моршанск,0.581942947535096,41550
54.487293,34.978954,Мосальск,0.59114542861095,4285
55.4792046,37.3273304,Москва,0.900819328283346,11514330
58.184208,94.694298,Мотыгино,0.436548011937258,5902
59.3951018,48.9644445,Мураши,0.588897499732059,6752
68.970665,33.07497,Мурманск,0.677680024192623,59690
55.5738,42.0447,Муром,0.631552748722759,116078
53.278984,36.576077,Мценск,0.599419170824627,43216
53.71386,87.800316,Мыски,0.595268723472209,43029
55.9094928,37.7339358,Мытищи,0.638328298366569,173341
55.7420117,52.3992173,Набережные Челны,0.718918939453361,513242
55.544071,42.188671,Навашино,0.591295751610769,16413
65.5336238,72.5113955,Надым,0.597729287779789,46550
56.011593,90.418503,Назарово,0.601468380736975,52829
43.2320774,44.7540128,Назрань,0.605571885922752,93357
55.564896,71.349365,Называевск,0.594560839740484,12119
43.4883695,43.610560193588,Нальчик,0.64696802526252,240095
46.692261,47.851238,Нариманов,0.584782664587727,11386
55.3879473,36.7398309,Наро-Фоминск,0.711228386808057,18467
43.55299395,43.8540412039357,Нарткала,0.585529062937722,31679
67.6380175,53.0071044,Нарьян-Мар,0.702722973181014,21296
42.8246489,132.8926,Находка,0.62043811768589,159695
56.017616,29.917128,Невель,0.618682270379033,16324
44.6245814,41.9475941,Невинномысск,0.605133644649604,118351
57.4924036,60.2105408,Невьянск,0.606046439946757,25147
56.226097,32.771111,Нелидово,0.599045173321703,22886
57.460655,40.573799,Нерехта,0.588558357631089,22817
56.6579435,124.7123042,Нерюнгри,0.607985335268201,61746
56.0884031,54.2478094,Нефтекамск,0.607640805430429,121757
44.752205,44.985077,Нефтекумск,0.5885060158875,27700
61.090309,72.6101,Нефтеюганск,0.619826882269074,123276
58.288948,43.886444,Нея,0.583518221802039,9827
55.783573,109.571762,Нижнеангарск,0.45030088440925,4520
60.9339411,76.5814274,Нижневартовск,0.620297600438359,251860
55.6412879,51.8160376,Нижнекамск,0.617907212963085,234108
54.9084881,99.0302862,Нижнеудинск,0.604288249038967,6751
56.6619,59.30003,Нижние Серги,0.691891246199402,11217
53.529991,43.673626,Нижний Ломов,0.677289721429052,22678
56.328571,44.003506,Нижний Новгород,0.81258817317289,1250615
57.905149,59.9508466,Нижний Тагил,0.743440348450935,361883
58.618427,59.867397,Нижняя Тура,0.693348837090919,21596
50.03146,45.454487,Николаевск,0.59051510608517,15081
53.138729,140.72493,Николаевск-на-Амуре,0.800929643308547,22773
53.714596,46.085175,Никольск,0.584838264410508,8515
59.052734,60.595974,Новая Ляля,0.691975472245134,12400
58.52672495,31.2511955263742,Новгород Великий,0.201,222868
53.809017,58.643627,Новоабзаково,0.442701719497591,1331
45.4952532,41.2198866,Новоалександровск,0.589183015674592,26759
53.393341,83.939407,Новоалтайск,0.597864397222364,73134
50.529675,42.667362,Новоаннинский,0.59015928918299,17911
52.537086,31.93367,Новозыбков,0.598868386110141,40552
53.757607,87.136101,Новокузнецк,0.649627401580851,547885
53.099243,49.948364,Новокуйбышевск,0.598801959950265,108449
44.2533593,38.8447977,Новомихайловский,0.466471023537978,10858
54.043011,39.744011,Новомичуринск,0.584111524750372,19309
43.961891,43.6311,Новопавловск,0.587715508264983,26556
57.031181,29.332918,Новоржев,0.590006165130629,3695
44.7239578,37.7690711,Новороссийск,0.647743919553067,241788
55.0282171,82.9234509,Новосибирск,0.718438034771972,30250
52.972939,37.041908,Новосиль,0.590641687356554,3799
56.347385,30.152925,Новосокольники,0.592460766298975,8119
51.196369,58.298527,Новотроицк,0.596866647113002,97914
50.462326,48.135532,Новоузенск,0.589260654651106,17015
57.247047,60.095818,Новоуральск,0.61636056331778,91813
51.095146,41.616955,Новохопёрск,0.41,6108
56.1140023,47.4870341,Новочебоксарск,0.60203856632951,124094
47.41066,40.101986,Новочеркасск,0.64837155629697,169039
47.7558886,39.935987,Новошахтинск,0.601191954124949,111087
50.764427,37.863338,Новый Оскол,0.679595964618928,19530
66.085196,76.6799167,Новый Уренгой,0.698913580129181,104144
51.7953617,143.1365077,Ноглики,0.467784396815435,10151
69.3498394,88.200517,Норильск,0.642999824853446,175301
63.2002917,75.4475807,Ноябрьск,0.602499293173005,110572
54.4297351,50.8019579,Нурлат,0.594275393922464,32600
57.943423,55.3316349,Нытва,0.589518747152942,19041
63.286648,118.354149,Нюрба,0.60203856632951,10156
62.144636,65.4347572,Нягань,0.601933373610046,54903
56.055508,59.598629,Нязепетровск,0.59893474075431,12452
61.6612985,40.1970404,Няндома,0.591019878762334,22354
49.0145149,131.0538038,Облучье,0.581965831167331,9379
55.09992175,36.6092733472383,Обнинск,0.608954449231389,104798
51.211079,36.276245,Обоянь,0.591893403803029,13562
54.9859,82.7126,Обь,0.608913204678366,26137
54.8030364,38.2739462,Ожерелье,0.594915797907489,10540
55.3342342,76.9433418,Озеро-Карачинское,0.201,1507
55.76046,60.705101,Озёрск,0.611075045674712,79300
54.854209,38.5598853,Озёры,0.606419554225707,25012
54.4809722,53.4660062,Октябрьский,0.602394884543305,109379
58.3740782,33.3009383,Окуловка,0.592534386533935,12464
68.140732,33.282597,Оленегорск,0.51684965102717,23079
69.0128038,117.7666487,Оленёк,0.491776066939633,2273
60.979276,32.9749376,Олонец,0.605333231609556,9060
60.373016,120.438751,Олёкминск,0.604913349892532,9200
63.4180703,158.9963689,Омолон,0.435,873
54.991375,73.371529,Омск,0.704813026275111,25905
62.5127643,155.7823514,Омсукчан,0.410938798149577,3707
63.9110736,38.0956138,Онега,0.597954305917189,21359
56.71167,28.656818,Опочка,0.601425934179255,11601
51.767452,55.097118,Оренбург,0.671243876579828,20663
55.8083278,38.9790038,Орехово-Зуево,0.720779630992412,120620
51.2305015,58.4738015,Орск,0.612101225876828,238006
52.9685433,36.0692477,Орёл,0.679852982732133,317854
57.2829207,55.4602059,Оса,0.591045009200755,22420
57.1555447,33.102665,Осташков,0.607966245164479,18073
57.344631,28.357817,Остров,0.609772452062257,2177
50.864902,39.077244,Острогожск,0.597886886695108,33842
53.376175,51.348053,Отрадный,0.586130626181158,47709
53.5891082,142.9497542,Оха,0.598824109959262,7597
59.3643921,143.2410816,Охотск,0.556874063573657,3298
57.8836175,54.715823,Очёр,0.588741204468149,14237
53.787865,39.242054,Павелец,0.400259646224058,1591
55.965137,43.071114,Павлово,0.596820908781127,60699
59.684853,30.433264,Павловск,0.617023461876875,25126
46.1352557,39.782918,Павловская,0.495438474922168,65842
55.7813357,38.6507838,Павловский Посад,0.702775975104337,63771
50.045901,46.8896382,Палласовка,0.587502982539317,15984
43.1413275,133.1436968,Партизанск,0.600160425454279,38648
69.7028171,170.2746851,Певек,0.604571337985229,4161
53.200001,45,Пенза,0.650389913781275,519592
56.9403,32.7353,Пено,0.494328770013058,3661
54.8666491,43.8054106,Первомайск,0.589750109924887,14567
56.904858,59.943119,Первоуральск,0.618392764839225,149800
55.596546,44.544846,Перевоз,0.590919254414476,9201
56.7366104,38.8462821,Переславль-Залесский,0.664648326384509,41923
58.014965,56.246723,Пермь,0.693887116894582,1000679
58.6000449,35.8144722,Пестово,0.588897499732059,15911
50.139622,45.2141,Петров Вал,0.676834076479519,13264
52.3094494,45.3889831,Петровск,0.594036508354511,18555
51.275215,108.854485,Петровск-Забайкальский,0.692749154593756,18555
61.790039,34.390007,Петрозаводск,0.652963783285788,263540
53.0199693,158.6472187,Петропавловск-Камчатский,0.736284856590439,179526
55.064663,67.887154,Петухово,0.589980607427848,11291
55.9310313,39.4599489,Петушки,0.593844730994415,15167
65.12825625,57.138231414978,Печора,0.595479512807205,43458
57.813305,27.608185,Печоры,0.603431095894418,12308
59.5129787,34.1773573,Пикалёво,0.601701315696636,19981
61.5717807,31.4744211,Питкяранта,0.595945368383981,11484
54.369812,60.807091,Пласт,0.595174807416897,17344
57.459187,41.511353,Плёс,0.592041915680605,2600
51.199276,42.24094,Поворино,0.584223890140425,17692
55.4308841,37.5453056,Подольск,0.633235429941352,187956
60.914291,34.162354,Подпорожье,0.596820908781127,18729
61.7441164,75.5968105,Покачи,0.41,17053
55.9186169,39.1705507,Покров,0.584027116064219,17762
56.442108,60.165859,Полевской,0.601764690920084,64316
67.374084,32.495792,Полярные Зори,0.579469387767602,15106
49.2216366,143.1015759,Поронайск,0.596061284158929,16461
57.765289,29.551878,Порхов,0.588662907951958,10608
53.646797,52.123344,Похвистнево,0.58079016558367,28181
52.92878,33.454536,Почеп,0.588479828336916,17933
54.404776,32.4407898,Починок,0.586076180595133,8776
50.477947,71.091354,Пржевальское,0.415872022275768,1438
57.380333,41.281178,Приволжск,0.582718160876804,2341
62.545254,65.64843,Приобье,0.42356076917903,7327
53.890972,86.737663,Прокопьевск,0.602935888146584,210150
46.700161,41.724079,Пролетарск,0.586591481985524,20267
54.8707703,37.2188629,Протвино,0.604812955018773,37308
43.7590017,44.0103981,Прохладный,0.584195817992651,59595
61.6932537,33.6224108,Пряжа,0.445695492967573,3487
44.1092655,40.7902989,Псебай,0.434352223496241,10839
57.817398,28.334368,Псков,0.658275881125576,98778
52.0121253,48.8109795,Пугачёв,0.588845445337603,40895
61.808434,36.536045,Пудож,0.588164706733311,9698
56.3350632,29.3684565,Пустошка,0.583773194169525,4619
56.982048,43.168003,Пучеж,0.582400987595252,8583
56.0104274,37.8461892,Пушкино,0.608460676197388,102840
54.8347213,37.6139685,Пущино,0.606790423306173,20263
57.062908,27.921061,Пыталово,0.585721107070673,5826
60.755116,72.839981,Пыть-Ях,0.682974270712376,41453
44.039775,43.0706669,Пятигорск,0.617237377774935,142397
62.135315,77.462616,Радужный,0.593071597853601,18212
52.658699,41.879002,Рассказово,0.580849484548185,45484
56.8000651,59.9086688,Ревда,0.598824109959262,61713
57.370647,61.4042865,Реж,0.600376755614508,38709
56.259262,34.330151,Ржев,0.573723492749108,62026
57.105225,41.72839,Родники,0.582458777003492,26318
53.9448678,32.8479317285327,Рославль,0.597886886695108,54898
50.1961874,39.5764857,Россошь,0.586510404491649,62865
57.1692627,39.3583565,Ростов Великий,0.201,30969
47.2213858,39.7114196,Ростов-на-Дону,0.882080064866683,1091544
55.6583239,39.8717137,Рошаль,0.599397233682778,21265
52.259884,43.787853,Ртищево,0.588636786994003,41295
51.5276264,81.2176174,Рубцовск,0.603122057643518,146386
54.9471458,31.0906286,Рудня,0.586239373274872,10029
55.6998907,36.1946992,Руза,0.602790699859483,47529
54.058735,44.954391,Рузаевка,0.585721107070673,47529
58.050373,38.834637,Рыбинск,0.628235646430594,10683
54.7268415,39.5088612,Рыбное,0.580760484678029,18378
53.708878,40.062984,Ряжск,0.583376113370686,21676
54.6295687,39.7425039,Рязань,0.653367270156471,525062
45.1319466,33.6001281,Саки,0.537323496940214,25146
67.799362,130.403229,Саккырыр,0.469105622281867,1722
53.361687,55.924641,Салават,0.596866647113002,156085
66.5375387,66.6157469,Салехард,0.564747491722847,42494
61.3687283,31.8672895,Салми,0.462151062176819,2187
46.476669,41.541008,Сальск,0.592607918934035,61312
53.198627,50.113987,Самара,0.66695356600104,1164900
58.461376,36.411373,Сандово,0.438069876897978,6797
59.9606739,30.1586551,Санкт-Петербург,0.923213030152887,4848742
54.18671,45.18383,Саранск,0.624525824699421,318841
56.477334,53.8192957,Сарапул,0.593071597853601,101390
51.530018,46.034683,Саратов,0.659784981108812,12846
54.934631,43.334606,Саров,0.605908405399983,92073
71.9649533,114.0939433,Саскылах,0.408071657967153,2317
54.35392,41.926643,Сасово,0.581790904656226,28117
55.040287,59.028034,Сатка,0.596683489773534,45465
55.1084278,33.2376513,Сафоново,0.586375037867119,46116
53.0899015,91.4128377,Саяногорск,0.592779154128767,49889
54.1123301,102.1785158,Саянск,0.595432732995189,40786
66.9127,88.3706499,Светлогорск (Красноярск.),0.320430435186894,876
45.3406133,42.8459286,Светлоград,0.585474083095207,38520
51.377354,128.13475,Свободный,0.590742765524962,58594
56.2893393,28.4825575,Себеж,0.588164706733311,6375
44.6054434,33.5220842,Севастополь,0.718960520799665,393304
60.374702,93.032997,Северо-Енисейский,0.517964956585921,6747
55.635967,109.335648,Северобайкальск,0.595759448486215,23673
64.563385,39.823769,Северодвинск,0.61622712370003,192265
60.15016,59.960517,Североуральск,0.598624472716381,29279
52.156021,34.494572,Севск,0.589105278772078,7282
63.4086094,33.9933369,Сегежа,0.435,29660
69.152888,130.4463475,Сеймчан,0.435,2064
47.516393,40.8122575,Семикаракорск,0.587343105927299,23884
56.788342,44.49155,Семёнов,0.58661848413245,24536
49.580608,42.730164,Серафимович,0.585967144919861,9368
55.529616,45.4754305,Сергач,0.586860972573933,21387
56.3153529,38.1358208,Сергиев Посад,0.719419743521435,110878
52.461506,44.213924,Сердобск,0.582343143950112,35393
59.6051905,60.574043,Серов,0.605253474368568,99381
54.9155247,37.4195533,Серпухов,0.623895046095117,126496
52.720425,58.665466,Сибай,0.594084359598663,62732
48.7810752,142.8621308,Сим,0.325,332317
44.4059623,34.0050679,Симеиз,0.533864258081347,3916
44.9521457,34.1024858,Симферополь (Крым),0.772025377312302,332317
56.7193492,40.6660219,Синяя Осока,0.475,132
53.9862567,123.9373454,Сковородино,0.593217300993262,9561
53.823524,39.549274,Скопин,0.58453184281069,30374
52.983333,78.666667,Славгород,0.484296306132559,30370
59.73317,30.46667,Славянка,0.364463378933884,65000
45.2590875,38.1244609,Славянск-на-Кубани,0.79041993067713,63768
59.11726,28.086979,Сланцы,0.598066507658303,33587
55.5135771,109.2047775,Слюдянка,0.435,18542
54.77897005,32.0471812191561,Смоленск,0.686797543825562,7620
56.087009,60.732674,Снежинск,0.606575981719255,48896
48.966297,140.284958,Советская Гавань,0.687796879524132,27712
61.362099,63.57354,Советский,0.50975765213835,26434
59.4617,40.1166,Сокол,0.488557783008119,37191
59.649437,56.779594,Соликамск,0.599856281872238,97239
56.1853501,36.9781536,Солнечногорск,0.606223459884743,52996
51.161289,54.996372,Соль-Илецк,0.67320514960122,26308
58.119003,30.309679,Сольцы,0.584308029947858,10317
57.7809325,37.1653992,Сонково,0.45728560320245,3737
52.426971,53.154175,Сорочинск,0.582516512276447,30136
54.0834652,90.0184549555963,Сорск,0.55,12140
61.70274,30.691231,Сортавала,0.614482773958602,19215
54.0516143,35.9589929,Сосенский,0.583432996069115,12394
56.2573802,51.2842677,Сосновка,0.583886177518072,11960
63.58523435,53.9004017501668,Сосногорск,0.586239373274872,27809
43.5854823,39.723109,Сочи,0.73686030894163,343285
54.4118,34.032398,Спас-Деменск,0.676753317700496,4904
55.130867,40.176037,Спас-Клепики,0.5,5917
44.5980135,132.815701,Спасск,0.588468750996432,7442
44.5980135,132.815701,Спасск-Дальний,0.688468750996432,44166
67.455497,153.7071456,Среднеколымск,0.60134095326352,3525
52.243191,117.695541,Сретенск,0.595033664455886,6850
45.0433245,41.9690934,Ставрополь,0.640087865039878,32736
57.9898923,31.3634905,Старая Русса,0.693245858956064,32235
56.5081105,34.9314738,Старица,0.591520550885057,8610
52.584446,32.760098,Стародуб,0.599155408370537,19010
46.5359488,39.0625056,Староминская,0.466281093035212,42500
51.298038,37.833202,Старый Оскол,0.691255855011309,221163
53.632374,55.952259,Стерлитамак,0.606360791406027,273432
60.732758,77.600807,Стрежевой,0.589775763369325,42216
56.374,38.586,Струнино,0.584083401364362,14372
54.886598,38.0772589,Ступино,0.607640805430429,66942
44.8488369,34.971099,Судак,0.569984971883331,16492
51.190708,35.270855,Суджа,0.583432996069115,6036
55.9515703,40.8586886,Судогда,0.585004763564552,11848
56.4193908,40.4487893,Суздаль,0.587502982539317,10535
63.1103579,140.8507798,Сунтар,0.435,9826
62.0820094,32.345856,Суоярви,0.589467215043441,9763
53.0131501,32.3931633,Сураж,0.586429220199727,11640
61.254032,73.3964,Сургут,0.621274559165846,38922
48.605141,42.844147,Суровикино,0.583262190234049,20527
62.779732,148.15361,Сусуман,0.590994738072868,5865
54.099659,35.345821,Сухиничи,0.587209557880739,16295
56.9047389,62.0350233,Сухой Лог,0.68952873956348,34836
53.09579215,48.3940572827098,Сызрань,0.591785801521205,178773
61.6685237,50.8352024,Сыктывкар,0.587369780846292,235006
56.5030175,60.8093215,Сысерть,0.598535537059719,20594
55.8269908,34.2770455,Сычёвка,0.588767281218854,8200
60.1397073,32.5637502,Сясьстрой,0.596775136480937,13747
58.0413743,65.2719986,Тавда,0.601996510784124,35421
47.2153657,38.9285216,Таганрог,0.648421096046742,257692
56.065071,85.631325,Тайга,0.594084359598663,25330
55.9385304,98.0196711,Тайшет,0.604125898205879,8981
56.355515,114.837982,Таксимо,0.414123468139824,8114
49.7215861,131.9067955,Талакан,0.435,4345
56.730941,37.528016,Талдом,0.601489593058427,13819
57.014816,63.730244,Талица,0.598757636036544,18339
52.72879,41.45536,Тамбов,0.607832448617715,15211
56.902587,74.3698652,Тара,0.593604167069278,26664
54.7293536,37.1815538,Таруса,0.588975498982342,9656
55.216961,75.962196,Татарск,0.593844730994415,26114
56.858675,35.9208284,Тверь,0.652427846001138,403726
56.8554753,40.5405863,Тейково,0.583574973555011,34993
54.631496,43.210983,Темников,0.583603329846918,7247
45.2751663,37.3905481,Темрюк,0.601510798081644,38014
43.4833175,44.1386552575298,Терек,0.580552317148115,19170
71.636604,128.868546,Тикси,0.542450490278609,8440
45.6123531,38.9504299,Тимашёвск,0.584774059862562,51400
59.644323,33.5418624,Тихвин,0.610856813286042,58843
45.854679,40.128124,Тихорецк,0.597954305917189,61825
58.1998048,68.2512924,Тобольск,0.630515340710182,99698
55.23769,84.402458,Тогучин,0.591495613640382,21531
65.789,87.9624,Толька,0.325,4662
53.51495,49.407574,Тольятти,0.635621498217583,719484
58.968536,126.266853,Томмот,0.599769107318281,8054
58.6124279,82.0475315,Томск,0.646546876659938,25614
55.2751962,85.6228741,Топки,0.591345777911708,28642
57.040794,34.973373,Торжок,0.603245858956064,47702
56.496479,31.641077,Торопец,0.594750405132135,13018
59.5412777,30.8773645,Тосно,0.603122057643518,39127
59.975856,42.7568023,Тотьма,0.585857916004479,9784
54.084549,61.551991,Троицк,0.60041993067713,78637
54.8151264,58.4466273,Трёхгорный,0.601680176132246,32355
44.0984747,39.0718875,Туапсе,0.616990485739453,63233
54.606537,53.6974004,Туймазы,0.590312033745365,66849
54.1942,37.6165,Тула,0.547903376478935,501129
54.562096,100.579216,Тулун,0.597841899540284,44603
58.3522,59.8223,Тура,0.611275101764309,9468
52.1458093,93.9186434,Туран,0.592901174361401,4988
58.041454,63.697552,Туринск,0.599572512576238,17990
65.7934285,87.9589375,Туруханск,0.51784642314719,6183
57.875385,39.527214,Тутаев,0.591320769836959,41001
55.149694,124.7375884,Тында,0.597571284838242,35574
55.870556,72.196617,Тюкалинск,0.59015928918299,12050
57.153534,65.542274,Тюмень,0.632380562544312,581758
51.989845,42.258396,Уварово,0.58025370997789,26829
57.526783,38.316689,Углич,0.602436669222446,34505
66.411768,112.2517294,Удачный,0.599484935439836,12611
57.877998,35.0042,Удомля,0.588793346941117,31048
55.3197221,89.8424197,Ужур,0.594986544882205,16079
53.978512,38.160255,Узловая,0.58486604552406,55282
51.8357841,107.5839105,Улан-Удэ,0.706059916871015,431922
54.1463177,47.2324921,Ульяновск,0.641737227394931,17149
52.8451,32.6867,Унеча,0.587048917304899,26196
60.12912,64.803627,Урай,0.594156066877692,39435
57.4614974,45.7878911,Урень,0.480337573999847,12311
57.1101118,50.0003067,Уржум,0.585611440850685,10213
50.7970972,42.0051866,Урюпинск,0.586510404491649,41594
65.995731,57.5571267,Усинск,0.58800653966779,41100
52.0506929,39.7399996,Усмань,0.580552317148115,18752
52.7512013,103.6621625,Усолье-Сибирское,0.689943333298253,83364
43.7972447,131.9520752,Уссурийск,0.61679225753521,157946
57.959473,102.734192,Усть-Илимск,0.690978471405883,86591
54.9307169,58.1743686,Усть-Катав,0.687208606928884,23586
58.00614655,55.6778824012519,Усть-Качка,0.201,4350
50.2695927,85.6155842,Усть-Кокса,0.483827688081076,16317
70.00177,135.549835,Усть-Куйга,0.530717976780999,681
56.7803671,105.7464937,Усть-Кут,0.690290314647502,45061
45.2178027,39.6896725,Усть-Лабинск,0.684132173720047,43268
64.566376,143.237839,Усть-Нера,0.565944602680225,5173
65.438683,52.156208,Усть-Цильма,0.478015094618814,4877
58.843136,36.429729,Устюжна,0.584782664587727,9478
54.726288,55.947727,Уфа,0.664933872525562,1062300
63.58317295,53.7205047386828,Ухта,0.600850025928259,99642
54.316597,59.384636,Учалы,0.592852395253693,37771
55.809986,94.327774,Уяр,0.595432732995189,12666
52.089344,35.859486,Фатеж,0.582947811442921,5404
45.033669,35.3753628,Феодосия,0.628564572624909,69038
42.9772084,132.404905,Фокино (ЗАТО),0.700914282128039,23100
49.7653307,43.664987870316,Фролово,0.574587669263214,39489
57.248756,41.10923,Фурманов,0.582947811442921,36149
48.481403,135.076935,Хабаровск,0.654445468256092,42977
44.4231032,39.5369484,Хадыженск,0.590337454409521,21580
62.6477939,135.5750942,Хандыга,0.468705675544455,6095
61.00346,69.019157,Ханты-Мансийск,0.723777894434616,20283
47.4083742,47.2538899,Харабали,0.579983720938516,18209
59.9533237,40.2068249,Харовск,0.41,10078
43.246916,46.5855184,Хасавюрт,0.551100392955434,133929
71.9819205,102.4714765,Хатанга,0.489989495490236,4684
52.495499,48.105888,Хвалынск,0.588269926390745,13199
51.3628436,110.4579749,Хилок,0.594370689495176,11530
55.8892847,37.4449896,Химки,0.635876957062901,207125
57.1446,31.1833,Холм,0.533581063804351,3829
66.455612,143.223007,Хонуу,0.409042266993274,2476
43.5236362,39.8744074,Хоста,0.435,78533
53.126518,35.398109,Хотынец,0.387334066701962,3755
56.2541234,37.9908107,Хотьково,0.60172244801276,21612
55.8661072,47.473703,Цивильск,0.584810470768832,13478
47.650585,42.098232,Цимлянск,0.586456293514185,15029
56.7787468,54.1500704,Чайковский,0.599419170824627,82933
52.981285,49.711193,Чапаевск,0.584671314242403,72689
53.243015,39.966801,Чаплыгин,0.580043820796396,12656
56.7902,118.2732,Чара,0.46,3973
54.977795,60.37009,Чебаркуль,0.598468750996432,43405
56.1307195,47.2449597,Чебоксары,0.641842682409479,447929
55.1598408,61.4025547,Челябинск,0.665910992005991,31916
51.2165113,86.4441043,Чемал,0.435,4011
53.148434,103.070145,Черемхово,0.41,52650
54.226101,83.370468,Черепаново,0.59211603763707,19346
59.128696,37.916389,Череповец,0.613757068693384,312311
53.828236,91.31321,Черногорск,0.591794196700123,72117
55.2449588,73.0239806,Чернолучье,0.385,258
45.508597,32.707775,Черноморское,0.477232010311684,11379
56.500682,56.0762788,Чернушка,0.585611440850685,33275
68.74390845,161.330807809303,Черский,0.519712984743276,2555
55.1426603,37.4545328,Чехов,0.61123821435197,60677
55.3714831,50.6367311,Чистополь,0.597072050596714,60703
52.033409,113.500893,Чита,0.619431852078288,323964
70.61924,147.902161,Чокурдах,0.470507920897054,2085
59.1194805,31.6665918,Чудово,0.586239373274872,16148
55.09,80.970459,Чулым,0.592017188539101,11964
54.8420149,83.054046236672,Чумикан,0.435,1959
58.282055,57.821075,Чусовой,0.593314245408645,46740
58.79034025,56.1512192426979,Чёрмоз,0.585446574770995,3400
56.087364,63.629482,Шадринск,0.594179950776217,77744
55.535503,89.186432,Шарыпово,0.41,38570
58.37257,45.519306,Шарья,0.584336051043759,23668
55.578403,39.5437584,Шатура,0.604692264903106,32836
47.7119167,40.2115699,Шахты,0.604873211565244,240152
57.6730182,46.6152378,Шахунья,0.587102510699034,21337
54.028687,41.712601,Шацк,0.582024029849061,6562
51.851639,116.025894,Шилка,0.593748618071432,13947
51.9987022,127.6719156,Шимановск,0.593047280473379,19815
55.4985162,46.4186725,Шумерля,0.585529062937722,33412
55.228207,63.282501,Шумиха,0.591120339093252,17821
53.32782,91.945374,Шушенское,0.454124274397626,17142
56.844101,41.379601,Шуя,0.591719686435913,58528
51.870821,36.9131896,Щигры,0.583432996069115,17043
55.208908,62.747772,Щучье,0.591520550885057,10971
61.919209,159.235931,Эвенск,0.41,1404
46.306999,44.270187,Элиста,0.592165402797397,103728
51.5013775,46.1233093,Энгельс,0.602290298739534,202838
61.3149709,63.3315999,Югорск,0.593580058952651,34066
56.5840428,42.0109249,Южа,0.582343143950112,14170
44.0270756,145.8613722,Южно-Курильск,0.56173885138595,7863
46.9574273,142.727438,Южно-Сахалинск,0.68545612733951,181727
44.662231,45.645138,Южно-Сухокумск,0.680337454409521,10048
54.4425364,61.2682731,Южноуральск,0.595805981066283,37890
55.7136,84.934799,Юрга,0.596038118438163,81536
56.4971948,39.67864,Юрьев-Польский,0.684679386419411,19588
57.318053,43.1107007,Юрьевец,0.58486604552406,10205
54.870075,58.427807,Юрюзань,0.595479512807205,12568
54.7415766,35.2264393,Юхнов,0.589595964618928,7056
62.027287,129.732086,Якутск,0.634103594864071,269486
44.4970713,34.1586871,Ялта,0.647903925872039,7771
56.654934,66.312752,Ялуторовск,0.509286093607089,36494
56.27076,54.931702,Янаул,0.589467215043441,26988
57.3012512,47.8773055,Яранск,0.477391061753173,17252
52.919704,78.563568,Яровое,0.592041915680605,18085
57.64955255,39.8748582716262,Ярославль,0.65676263979287,591486
55.0662279,32.6883609,Ярцево,0.590413653553007,47853
48.0267,38.4834,Шахтерск,1,48759
