,lat,lng,name,osm_accuracy,population
0,52.651054599999995,90.101159,Абаза,0.593507677970318,17111
1,53.7209024,91.442435,Абакан,0.609790990910155,165183
2,53.6828,53.655701,Абдулино,0.58718281351088,20663
3,44.8649528,38.1578189,Абинск,0.5978643972223641,34926
4,56.525459700000006,52.9972512,Агрыз,0.596614665199801,19299
5,43.425383399999994,39.9237036,Адлер,0.536537590075626,109539
6,54.862955500000005,53.0792275,Азнакаево,0.5950572107405551,34859
7,47.0884477,39.424074559130396,Азов,0.633784277105689,82882
8,47.268696000000006,39.861362,Аксай,0.589467215043441,41984
9,57.850811,61.695,Алапаевск,0.613774447066366,38198
10,54.84582955,46.5627484284573,Алатырь,0.5886688924656,38202
11,58.608414,125.388222,Алдан,0.605947875397728,21277
12,52.4970221,82.7730755,Алейск,0.598513283078841,28528
13,56.3962287,38.711110299999994,Александров,0.614190064709064,61544
14,59.163218900000004,57.5806324455949,Александровск,0.589053399644964,15022
15,50.6299364,38.6867154,Алексеевка,0.591445708860836,39026
16,54.5028103,37.0667213,Алексин,0.593120203849316,61738
17,55.554956000000004,98.6654191,Алзамай,0.598401892483957,6751
18,44.677112,34.4095393,Алушта,0.602915167891094,28642
19,54.90050079999999,52.2963777,Альметьевск,0.6060070330404449,146309
20,64.7316875,177.5060925,Анадырь,0.591918180647331,13053
21,44.894271999999994,37.316887,Анапа,0.6429240761307851,58983
22,52.53111170000001,103.8826109,Ангарск,0.620687137820104,233765
23,56.646801,32.26532,Андреаполь,0.5955262571396489,8265
24,56.077808,86.019356,Анжеро-Судженск,0.691975472245134,76669
25,67.568626,33.404392,Апатиты,0.5387485870051529,59690
26,56.6954649,60.850453599999994,Арамиль,0.603533765249116,14227
27,43.2950455,45.86889179999999,Аргун,0.5951277956683381,29528
28,54.8436669,46.2386314,Ардатов,0.588374966721875,9400
29,55.3989463,43.840812899999996,Арзамас,0.614842447172448,106367
30,51.942913,43.489098,Аркадак,0.5887933469411171,12846
31,44.9993585,41.1294061,Армавир,0.625553416979574,188897
32,44.1608008,133.2889113,Арсеньев,0.602290298739534,56742
33,56.090991599999995,49.8771828,Арск,0.591620199086833,18114
34,54.116268000000005,86.27005799999999,Артышта,0.575105590586511,263
35,43.35703770000001,132.1853629,Артём,0.605651232440788,106460
36,48.60083235,37.9940003223644,Артёмовск,0.494973508413046,2180
37,57.343185399999996,61.8775035,Артёмовский,0.604328770013058,32878
38,64.543022,40.537121,Архангельск,0.6830740534513711,348716
39,57.00527460000001,61.458076500000004,Асбест,0.609063811524401,70067
40,56.999187,86.14166999999999,Асино,0.5939886199299,25614
41,46.3652486,48.0552168617783,Астрахань,0.6704389758656829,520662
42,51.882442,45.012572999999996,Аткарск,0.5952687234722089,25620
43,48.2877616,46.174487899999995,Ахтубинск,0.592998616910351,41898
44,56.2694846,90.4953964,Ачинск,0.6251791008596739,109156
45,54.99088960000001,57.278053099999994,Аша,0.60201754214395,31916
46,56.460900699999996,138.1817339,Аян,0.590439032346601,1895
47,59.3969942,35.940425,Бабаево,0.5963385957600611,12074
48,51.7161749,105.8635328,Бабушкин,0.598401892483957,4839
49,54.4030866,53.235701600000006,Бавлы,0.5927302783138559,22109
50,55.466446999999995,119.95388249999999,Багдарин,0.435,4875
51,51.522597999999995,104.14907099999999,Байкальск,0.599812710008018,13589
52,61.680826100000004,96.38302209999999,Байкит,0.5769014587248721,3513
53,43.68587385,43.544624025,Баксан,0.5871560575307021,36857
54,55.1783579,36.657556400000004,Балабаново,0.5891312019688311,26337
55,52.01812,47.819140999999995,Балаково,0.612899469290669,199576
56,55.803622499999996,37.96464879999999,Балашиха,0.6302366107451179,215353
57,51.537084,43.1717621,Балашов,0.602520153690846,82222
58,51.578789,116.646042,Балей,0.5952687234722089,12536
59,55.3567611,78.350348,Барабинск,0.599375288729948,30250
60,53.347402,83.77844959999999,Барнаул,0.6711959854972599,635585
61,53.654075799999994,47.1013737,Барыш,0.584392055045225,17149
62,67.654907,134.63507099999998,Батагай,0.595759448486215,3647
63,47.138527,39.742348,Батайск,0.611147618423012,112400
64,56.973884600000005,29.8845309,Бежаницы,0.5078493758844651,4141
65,57.78135699999999,36.692535,Бежецк,0.600892870837439,24517
66,68.53701,146.187286,Белая Гора,0.6750324697459009,2058
67,48.1751778,40.7902124,Белая Калитва,0.6890892910038822,43688
68,50.5955595,36.5873394,Белгород,0.664911139729077,356426
69,52.9669338,43.4130625,Белинский,0.586103409400246,8567
70,54.419323,86.30342900000001,Белово,0.598691090340636,76752
71,50.921326,128.47287,Белогорск,0.6035952848676379,68220
72,60.03199,37.7842189,Белозерск,0.603963118581715,9614
73,51.9994856,84.9860861,Белокуриха,0.596361648836586,15072
74,64.5216684,34.762583500000005,Беломорск,0.59186861699418,11217
75,53.968070499999996,58.4099549,Белорецк,0.607813311092527,68804
76,44.7614149,39.871294299999995,Белореченск,0.603574785150379,53891
77,63.7156353,66.6667691,Белоярский,0.5968209087811271,20283
78,55.833073,32.939487,Белый,0.5982008806752789,3771
79,54.7437662,83.0626890786016,Бердск,0.593615777768699,98809
80,59.408417099999994,56.8036958,Березники,0.617565036172246,156350
81,63.935246,65.053566,Берёзово,0.59231326148336,7050
82,61.0183491,138.3158678,Берёзовый,0.435,29441
83,43.18755720000001,44.537568900000004,Беслан,0.6061251782511401,36724
84,52.5394905,85.2148673,Бийск,0.6230338711197161,203826
85,46.819363,134.254822,Бикин,0.5964997865097429,17156
86,48.78816679999999,132.9282082,Биробиджан,0.586699419665253,75419
87,50.290527000000004,127.527161,Благовещенск,0.619684962903729,34246
88,45.100857,43.420868,Благодарный,0.5877685253859921,32736
89,51.0967999,40.0307798,Бобров,0.589544497059049,19738
90,56.7683407,62.052077399999995,Богданович,0.603451643452326,31752
91,53.773571,38.126965000000006,Богородицк,0.59086888056666,31897
92,56.493906200000005,38.182557200000005,Богородское,0.5810270996548921,109432
93,56.211464,89.531639,Боготол,0.6008071512139229,21029
94,49.93244979999999,40.554475399999994,Богучар,0.594560839740484,11811
95,57.8500317,114.20382839999999,Бодайбо,0.602269360264941,15331
96,59.472902100000006,33.848995200000005,Бокситогорск,0.60172244801276,16593
97,54.9609,49.0334,Болгар,0.785388247880598,8650
98,57.885204,34.049603000000005,Бологое,0.6040445621341971,23499
99,55.671566000000006,84.38855,Болотное,0.5963385957600611,16969
100,53.44899399999999,36.002232,Болхов,0.5956196395808051,11421
101,43.1121194,132.3509104,Большой Камень (ЗАТО),0.693922356411331,37918
102,56.3548,44.0593,Бор,0.5046028984002511,78079
103,50.38518079999999,116.5330685,Борзя,0.5988683861101409,31376
104,51.368015,42.075169,Борисоглебск,0.604409732125682,65585
105,58.389008999999994,33.906827500000006,Боровичи,0.60201754214395,54731
106,55.8997187,94.8930452,Бородино,0.5990231026323449,17423
107,56.1517085,101.6334907,Братск,0.625251261504111,246348
108,55.421993799999996,38.259061200000005,Бронницы,0.6120118905961159,21102
109,53.24237779999999,34.36682879999999,Брянск,0.659014203478658,415640
110,54.5384152,52.795595299999995,Бугульма,0.606282353725223,89144
111,53.6208,52.417,Бугуруслан,0.596107589494971,52249
112,44.780533,44.163357,Будённовск,0.600785702666857,64628
113,52.788502,52.253899,Бузулук,0.601996510784124,82816
114,54.972286600000004,48.2928964,Буинск,0.5940843595986629,20342
115,58.4781,41.5166,Буй,0.557384640197825,25763
116,50.828491,40.587322,Бутурлиновка,0.49626260715515397,27208
117,57.979141399999996,33.2537994,Валдай,0.594821342104523,16099
118,50.211296000000004,38.100227000000004,Валуйки,0.5991994472429871,35322
119,60.345203000000005,102.28093,Ванавара,0.577811294327093,2906
120,49.090481,140.260864,Ванино,0.5859125546599829,15314
121,55.6045223,31.1949976,Велиж,0.596958022073212,7620
122,56.342361,30.527921999999997,Великие Луки,0.758345464804485,98778
123,60.76128520000001,46.301466600000005,Великий Устюг,0.7087143538776091,31664
124,61.0756446,42.09795820000001,Вельск,0.597231336930754,23885
125,58.0721045,54.66748470000001,Верещагино,0.5909695871239891,22760
126,55.343238,36.185145,Верея,0.607506299750977,5368
127,63.449760899999994,120.31466780000001,Верхневилюйск,0.581820093574305,21002
128,53.878002,59.211380000000005,Верхнеуральск,0.603881567263997,9459
129,57.37480479999999,59.9320354,Верхний Тагил,0.69134095326352,11843
130,56.052029000000005,60.226448,Верхний Уфалей,0.690807151213923,30504
131,58.043597999999996,60.554832,Верхняя Салда,0.693840751103981,46240
132,58.3605,59.81823000000001,Верхняя Тура,0.6920805931974,9468
133,58.861702,60.809338000000004,Верхотурье,0.609530938206308,8815
134,58.663726399999994,37.2626496,Весьегонск,0.593483532074075,7330
135,63.754082,121.626549,Вилюйск,0.604893283996417,10233
136,56.124722,101.171951,Вихоревка,0.5983126348298741,22528
137,57.20439895,41.9132782222458,Вичуга,0.581942947535096,37609
138,43.1150678,131.8855768,Владивосток,0.714840167312577,592069
139,43.024592999999996,44.682109999999994,Владикавказ,0.658553789525574,311635
140,56.1288899,40.407520299999995,Владимир,0.6808850789897131,348256
141,48.64820995,44.3857637990291,Волгоград,0.6991622008788249,1021244
142,47.5414072,42.228104828647496,Волгодонск,0.603250952418196,170621
143,57.440105,41.157181,Волгореченск,0.586483354941348,17108
144,55.88183660000001,48.3462942305733,Волжск,0.582558907083044,55671
145,48.782102,44.7779843,Волжский,0.610381308736396,314436
146,59.218876,39.893276,Вологда,0.653284953368342,301642
147,56.036012899999996,35.95833579999999,Волоколамск,0.632097253899569,23386
148,59.9275868,32.327680300000004,Волхов,0.6128289314868349,47344
149,50.2805047,36.9452503,Волчанск,0.493287070859554,10008
150,52.042755,47.386032,Вольск,0.604288249038967,66520
151,67.494957,64.0401,Воркута,0.6238802997379771,70551
152,51.6605982,39.20058579999999,Воронеж,0.696479374942082,889680
153,55.322518,38.6816824,Воскресенск,0.622764144652578,91301
154,57.052505000000004,53.990612,Воткинск,0.6012771405923771,100034
155,63.844337,57.300171,Вуктыл,0.588401198856501,12357
156,60.709217,28.744051000000002,Выборг,0.6910472603069089,80013
157,55.318774,42.1800408,Выкса,0.5966376152649979,56196
158,61.006355000000006,36.451122,Вытегра,0.5953390667167161,10490
159,57.588303,34.5714,Вышний Волочёк,0.58672863886048,52326
160,47.533455,134.757874,Вяземский,0.5933142454086451,14556
161,56.24514,42.137577,Вязники,0.600506190172488,41252
162,55.210356299999994,34.2995187,Вязьма,0.620687137820104,57103
163,56.2229946,51.074903799999994,Вятские Поляны,0.6872540585529,35159
164,56.558550100000005,40.1205669,Гаврилов Посад,0.6771292899301191,6434
165,57.303282700000004,39.8537697,Гаврилов-Ям,0.6753364185318901,17792
166,55.553383,34.996864,Гагарин,0.604893283996417,31721
167,58.3781,42.3499,Галич,0.6132509524181949,17346
168,59.57062729999999,30.1305083,Гатчина,0.643869640553369,92566
169,58.743066000000006,27.8156854,Гдов,0.603574785150379,4379
170,44.56094470000001,38.076683200000005,Геленджик,0.616377222974422,54813
171,44.1478944,43.4741718,Георгиевск,0.59952873956348,72126
172,58.1401196,52.64643879999999,Глазов,0.605730476938202,95835
173,55.614960200000006,36.9887625,Голицыно,0.602790699859483,17447
174,51.957775,85.96365300000001,Горно-Алтайск,0.715077933807857,62861
175,58.374001,58.325058,Горнозаводск,0.588689017844055,12334
176,51.0004641,81.4638583,Горняк,0.591719686435913,13040
177,46.082851,41.934269,Городовиковск,0.5831480561285199,9565
178,56.20656999999999,42.679035,Гороховец,0.602478425592182,14015
179,44.634265299999996,39.1363613,Горячий Ключ,0.6876390499900639,30093
180,58.566596999999994,57.833389000000004,Гремячинск,0.5885060158875,11005
181,43.319703100000005,45.693430799999994,Грозный,0.6805919537374139,271596
182,52.49612,39.955162,Грязи,0.588715116679665,46798
183,58.8841803,40.2512646,Грязовец,0.6021645610569449,15528
184,58.842406999999994,57.555057999999995,Губаха,0.590843678194862,27544
185,51.283714,37.534659999999995,Губкин,0.5904136535530071,88562
186,64.4337824,76.48980859999999,Губкинский,0.5920171885391011,23340
187,43.3486103,46.095945,Гудермес,0.598513283078841,45643
188,48.053030299999996,39.9441925,Гуково,0.5951277956683381,67268
189,45.3565119,40.6962256,Гулькевичи,0.59698084466165,35225
190,54.7745571,20.6037041,Гурьевск,0.598245606656467,12433
191,51.289516,106.52700800000001,Гусиноозёрск,0.597819393642874,24603
192,55.6149968,40.670866499999995,Гусь-Хрустальный,0.694003853810806,60773
193,54.218571,55.026661,Давлеканово,0.5995068413932829,24040
194,43.6590048,39.6544373,Дагомыс,0.453892137025745,74737
195,56.25865600000001,62.939163,Далматово,0.5951513060250501,13913
196,44.559457,135.57592409999998,Дальнегорск,0.6009784714058829,37503
197,45.9337195,133.7349056,Дальнереченск,0.6025826929142459,27601
198,58.188807999999995,40.175114,Данилов,0.590641687356554,15861
199,53.2533095,39.1591798,Данков,0.590768009186741,21056
200,56.698341000000006,60.08680699999999,Дегтярск,0.602790699859483,15521
201,55.26437779999999,31.5178326,Демидов,0.598779801977935,7333
202,69.30371099999999,139.96452299999999,Депутатский,0.5828904789742541,2932
203,42.057858,48.288764799999996,Дербент,0.630276506570897,119961
204,54.142923200000006,33.284404867503,Десногорск,0.5905151060851701,29677
205,56.2382157,43.461740500000005,Дзержинск,0.611545248185286,240762
206,55.959644,92.37541999999999,Дивногорск,0.604064906217356,28271
207,73.50838940000001,80.5123816,Диксон,0.50842808811171,548
208,54.2188995,49.6038982,Димитровград,0.604792856404745,122549
209,52.12849,35.075439,Дмитриев-Льговский,0.570639694209592,7600
210,56.345069499999994,37.5200723,Дмитров,0.6150470362378989,61454
211,57.8288277,29.961135700000003,Дно,0.5941560668776921,9061
212,58.465281000000004,56.4192325338404,Добрянка,0.594346879412062,35720
213,47.3241456,142.79793610000002,Долинск,0.59799921112819,12200
214,55.4368213,37.7680693,Домодедово,0.613548145105619,96123
215,48.0158753,37.8013407,Донецк,0.6151275531028331,50085
216,53.965651,38.3183367,Донской,0.589234785857705,64561
217,54.914823600000005,33.298905100000006,Дорогобуж,0.6179721746548671,10720
218,56.74177675,37.175532969607794,Дубна,0.627376019174255,70569
219,49.060520000000004,44.830776,Дубовка,0.591744533200762,14345
220,55.194692700000004,32.4021172794943,Духовщина,0.599747294400208,4370
221,55.490616,54.86389499999999,Дюртюли,0.596407729137329,31272
222,53.6003804,34.3335523,Дятьково,0.590616391891651,29438
223,45.1907635,33.3679049,Евпатория,0.6301167680813771,106840
224,55.3829765,39.0356223,Егорьевск,0.621351436311116,70133
225,46.7110877,38.2747683,Ейск,0.617565036172246,87771
226,56.839104000000006,60.60825,Екатеринбург,0.7348564503108621,1377738
227,55.757713100000004,52.05399379999999,Елабуга,0.611310595334303,70750
228,52.6219865,38.500329799999996,Елец,0.584615563538129,108404
229,54.576495400000006,33.1891698,Ельня,0.6105280089529289,10095
230,54.75912099999999,61.313198,Еманжелинск,0.5990231026323449,30218
231,62.598296999999995,50.887928,Емва,0.585857916004479,14574
232,58.45322120000001,92.17481690000001,Енисейск,0.615471094601149,18769
233,61.275020999999995,108.00971200000001,Ербогачён,0.578028912104563,1965
234,51.34985,48.275078,Ершов,0.58842741983089,21447
235,44.0468389,42.8565018,Ессентуки,0.604712396341918,100969
236,44.1424034,43.0090751,Железноводск,0.594537103017921,24496
237,56.250938,93.53286,Железногорск,0.612616832398112,85559
238,56.577915000000004,104.12294,Железногорск-Илимский,0.6227745252834611,26134
239,55.74593879999999,38.0158304,Железнодорожный,0.601255855011309,151985
240,51.843933,41.470366999999996,Жердевка,0.581644752348296,15211
241,66.76564,123.3741,Жиганск,0.581204204372658,3420
242,53.400512199999994,49.4955657,Жигулёвск,0.590616391891651,57565
243,53.748543000000005,34.735447,Жиздра,0.5920171885391011,5585
244,50.978778999999996,44.778908,Жирновск,0.5876358969737769,16890
245,53.76413670000001,31.495078499999998,Жуковка,0.46,18269
246,49.644653000000005,117.329025,Забайкальск,0.585363976054984,12536
247,50.111154,129.4402341,Завитинск,0.594203825422795,11481
248,56.50929300000001,66.539261,Заводоуковск,0.592362468990463,25657
249,57.4909934,42.13964,Заволжск,0.588897499732059,12045
250,52.387798,38.92672,Задонск,0.5916699628354979,9695
251,55.2866509,52.0056047,Заинск,0.5944658379500021,41798
252,58.501495,27.879011,Залахтовье,0.22043043518689398,1079
253,55.965401,94.708107,Заозёрный,0.598424186714395,10683
254,56.258968,32.085865000000005,Западная Двина,0.680641687356554,9376
255,54.7585694,38.8818137,Зарайск,0.6173194558259151,24648
256,56.8149706,61.320593599999995,Заречный,0.6028114619952271,63579
257,53.707915,84.9348606,Заринск,0.596843782189952,47035
258,55.7293613,36.858538200000005,Звенигород,0.625925473457402,16395
259,48.020645,40.118561,Зверево,0.5933142454086451,22416
260,56.11356,94.589279,Зеленогорск (ЗАТО),0.7084796137914449,64343
261,55.8477605,48.5097031,Зеленодольск,0.604003853810806,97651
262,44.403175,43.884163,Зеленокумск,0.589467215043441,35790
263,53.928402,102.052727,Зима,0.601954426522077,32522
264,55.03463945,59.5292694311903,Златоуст,0.6119021390014711,174985
265,52.426113,31.7390793,Злынка,0.5890274436962241,5507
266,51.1544658,82.1979928,Змеиногорск,0.597548679886816,10569
267,54.6155775,21.227367,Знаменск,0.5905151060851701,29357
268,56.17007099999999,34.585182,Зубцов,0.612775975104337,6937
269,58.4060241,51.1388605,Зуевка,0.589079344667183,11198
270,52.641701,108.14624520000001,Зырянка,0.435,3170
271,59.37441389999999,28.2192542,Ивангород,0.620687137820104,9797
272,56.998445200000006,40.9737394,Иваново,0.639815154863199,409277
273,60.6973287,60.4172583,Ивдель,0.607390775069782,17764
274,67.46721600000001,86.56975600000001,Игарка,0.41,6183
275,63.191513,64.424301,Игрим,0.438668254407684,7477
276,56.86655699999999,53.2094166,Ижевск,0.6525020460394421,628117
277,42.5710804,47.862999,Избербаш,0.5995943874298381,56301
278,57.7103914,27.861682000000002,Изборск,0.503534851269978,789
279,65.2239948,145.6607722,Известковый,0.435,1536
280,45.3740796,41.712115399999995,Изобильный,0.588112029465683,40546
281,56.23806,96.06694,Иланский,0.5976164698837939,16108
282,49.306286,43.979027,Иловля,0.459448365439565,11568
283,53.8579402,46.3573236,Инза,0.5853088486815661,18547
284,53.867741,44.371407,Инсар,0.585391521261866,8687
285,66.039749,60.13158000000001,Инта,0.5955028894050101,32021
286,45.719722999999995,42.916286,Ипатово,0.589698770980334,26055
287,57.67404200000001,63.063778000000006,Ирбит,0.6118328306230639,38352
288,52.289597,104.280586,Иркутск,0.696101302794776,587225
289,54.904892000000004,71.259987,Исилькуль,0.594892197524519,25905
290,54.61506035,83.29727586648599,Искитим,0.5897909125190649,60072
291,56.110912,69.473366,Ишим,0.606984724852259,69567
292,53.454655,56.043994999999995,Ишимбай,0.612899469290669,66259
293,56.6328248,47.897246200000005,Йошкар-Ола,0.69612517825114,248688
294,44.267363700000004,135.0554977,Кавалерово,0.44353273073045796,14437
295,55.7823547,49.1242266,Казань,0.7495911075609809,1216965
296,57.7019,93.2756,Казачинское,0.393208261767925,3604
297,50.425951899999994,41.0161721,Калач,0.591694829650187,20046
298,48.692699,43.524063,Калач-на-Дону,0.7936976813015129,26892
299,55.049091000000004,74.58242800000001,Калачинск,0.595805981066283,24000
300,65.200096,31.180172,Калевала,0.5038458648788621,3855
301,54.710128000000005,20.510583800000003,Калининград,0.721532705657472,431491
302,51.499947,44.484581,Калининск,0.588191028492999,16442
303,54.5101087,36.2598115,Калуга,0.670563076626748,325185
304,57.2400206,37.8404883,Калязин,0.60367721561998,13870
305,56.2652515,54.194561300000004,Камбарка,0.5885060158875,11028
306,53.1850012,44.0529066,Каменка,0.5862665300937171,39579
307,60.95261020000001,29.1303401,Каменногорск,0.609530938206308,6761
308,56.415451000000004,61.917797,Каменск-Уральский,0.7084572170274491,174710
309,48.3210807,40.2650679,Каменск-Шахтинский,0.6971010124327429,95306
310,53.793676100000006,81.3516358,Камень-на-Оби,0.7906568543982441,41787
311,56.34625749999999,40.997098,Камешково,0.590337454409521,13113
312,50.06525345,45.384491159226506,Камышин,0.6043107604521011,119924
313,56.8380653,62.7315204168864,Камышлов,0.598099751884054,26875
314,55.5148161,47.498630718890105,Канаш,0.582190070558131,45608
315,67.151442,32.4130551,Кандалакша,0.5566110515128969,35659
316,56.205996999999996,95.706787,Канск,0.6118507600484631,94230
317,55.485808999999996,60.209541,Карабаш,0.599550629955958,13151
318,50.4019239,84.47034980000001,Карагайский,0.36,6682
319,53.734469999999995,78.032372,Карасук,0.5969123515269411,28929
320,53.124191,34.996758,Карачев,0.599155408370537,19715
321,59.059805299999994,80.8708719,Каргасок,0.43338668313243395,24000
322,55.1929899,80.2828252,Каргат,0.595033664455886,10620
323,59.76678929999999,60.0009267,Карпинск,0.6061448471197829,29118
324,53.053261,60.639171999999995,Карталы,0.600376755614508,29136
325,54.939693000000005,41.395179999999996,Касимов,0.604510785434716,33494
326,55.8904193,60.75385179999999,Касли,0.601912313504127,16998
327,54.753479000000006,58.205783999999994,Катав-Ивановск,0.5,17640
328,56.290913,62.57908199999999,Катайск,0.594418282083929,14017
329,58.6981697,59.48101139999999,Качканар,0.604913349892532,42563
330,57.361755,37.611453999999995,Кашин,0.601933373610046,16174
331,54.837449,38.1505119,Кашира,0.618666222364524,41880
332,55.355125,86.087234,Кемерово,0.6377068687383871,532884
333,64.9458,34.6001,Кемь,0.599287430697433,13061
334,67.53,165.388,Кепервеем,0.435,263
335,45.3534002,36.4538645,Керчь,0.65283484516476,144600
336,51.7190995,94.4300627,Кизел,0.519742426977768,20277
337,43.1999049,46.8713343,Кизилюрт,0.601042593901044,36187
338,43.8546727,46.713932899999996,Кизляр,0.6133035024279491,49169
339,56.85631779999999,37.3563155038629,Кимры,0.5947526395032379,49623
340,59.37439820000001,28.5981591,Кингисепп,0.6228091811174039,48667
341,53.219738,50.633228,Кинель,0.586995277267246,34472
342,57.4431,42.1400999,Кинешма,0.60371814018946,88113
343,57.77635600000001,108.116295,Киренск,0.603101399892571,12652
344,56.159222899999996,38.8721255,Киржач,0.600051974961097,30044
345,59.8588453,38.3760743,Кириллов,0.6002470486580991,7735
346,59.450325,32.010578,Кириши,0.61172514439991,52826
347,58.6035257,49.6639029,Киров,0.6429998248534461,31888
348,57.42652710000001,60.0665927,Кировград,0.6054128857716911,21959
349,52.654755,42.724959999999996,Кирсанов,0.5872630118297729,17240
350,54.004987199999995,86.63547709999999,Киселёвск,0.601106649752338,98382
351,43.9128743,42.7192186,Кисловодск,0.628605565243229,128502
352,56.33555429999999,36.73521470000001,Клин,0.62876926361137,80584
353,52.758511,32.240097,Клинцы,0.5955262571396489,62510
354,56.355386100000004,41.31699298284661,Ковров,0.607368650240691,145492
355,54.038091200000004,43.915620200000006,Ковылкино,0.586293674951841,21307
356,62.26798,74.4889068,Когалым,0.6009570824071011,58192
357,58.596329000000004,99.18291500000001,Кодинск,0.5975712848382421,14835
358,54.037102000000004,35.780102,Козельск,0.579166584106196,18203
359,56.3324346,46.546285499999996,Козьмодемьянск,0.594537103017921,21262
360,68.880638,33.019726,Кола,0.525869947621939,10447
361,55.0938743,38.7670121,Коломна,0.656128792076246,144642
362,58.313667,82.90355699999999,Колпашево,0.5958292341883741,24126
363,59.74844399999999,30.604478999999998,Колпино,0.608687544181304,147965
364,54.665443,86.166115,Кольчугино,0.49406490621735605,45804
365,57.02732099999999,40.377602,Комсомольск,0.585556534477902,8693
366,50.550877,137.020782,Комсомольск-на-Амуре,0.823045069244238,263906
367,56.713157200000005,36.7775654,Конаково,0.598245606656467,41303
368,62.20929,34.268184999999995,Кондопога,0.599177431740209,32978
369,54.8028,35.9322,Кондрово,0.588897499732059,16672
370,53.92099,40.019211,Кораблино,0.586048939755188,12657
371,45.463586299999996,39.4487565,Кореновск,0.597548679886816,41179
372,54.889922999999996,61.407963,Коркино,0.600138750616928,38950
373,50.810741,37.195316,Короча,0.590768009186741,5877
374,61.3151659,47.1607626,Коряжма,0.593555941402207,39629
375,63.456226,48.894211,Кослан,0.367277503353622,2288
376,64.5873013,30.5969076,Костомукша,0.587129289930119,28433
377,57.7679158,40.9269141,Кострома,0.6577162764613411,268617
378,47.633227399999996,43.141090000000005,Котельниково,0.590591086040598,20441
379,58.3053524,48.3372596,Котельнич,0.605770061011093,24979
380,61.252151,46.647628999999995,Котлас,0.614172803149122,60562
381,50.322208,44.801643,Котово,0.588164706733311,24104
382,56.121089500000004,38.1457655,Красноармейск,0.609194964270535,26294
383,60.40546155,57.0820319704652,Красновишерск,0.591570395125034,17129
384,45.0352566,38.976481400000004,Краснодар,0.7074378955246792,744933
385,50.096992,118.041344,Краснокаменск,0.600290314647502,55668
386,58.0812613,55.758694299999995,Краснокамск,0.5950572107405551,52632
387,48.7045848,44.563795899999995,Краснослободск,0.5899294602055171,16007
388,59.76463100000001,60.193611700000005,Краснотурьинск,0.61152722965004,59701
389,58.357063000000004,60.037445,Красноуральск,0.6045511604111831,24973
390,56.604538,57.771313,Красноуфимск,0.6084985455683941,80457
391,56.0090968,92.8725147,Красноярск,0.692879584384482,973826
392,50.9459056,46.972462,Красный Кут,0.6808184655132371,14420
393,47.891552000000004,40.071899,Красный Сулин,0.685432732995189,40866
394,58.056506999999996,37.114731,Красный Холм,0.684394490383432,5608
395,50.364742,108.75798,Красный Чикой,0.400804307025449,7063
396,45.434441299999996,40.575027399999996,Кропоткин,0.601404699932922,80743
397,56.006351,71.51130699999999,Крутинка,0.43685540608755297,6878
398,44.9295889,37.9880177,Крымск,0.608384867578516,57370
399,56.149551,44.198032,Кстово,0.6010639532495071,66641
400,55.575548600000005,36.6952802,Кубинка,0.616327230488751,22918
401,51.478756,57.350795999999995,Кувандык,0.5854740830952071,26176
402,57.0314657,34.179663700000006,Кувшиново,0.592362468990463,10008
403,56.0315502,47.2987956,Кугеси,0.42279513946526603,12809
404,59.01460600000001,54.664134999999995,Кудымкар,0.603018699579093,30711
405,53.112514000000004,46.600727,Кузнецк,0.5944658379500021,88886
406,55.429287,42.511879,Кулебаки,0.5914706663017,35762
407,52.760975,55.796482,Кумертау,0.599550629955958,62854
408,57.42884399999999,56.944328000000006,Кунгур,0.604993548211425,67857
409,54.364929000000004,77.30854000000001,Купино,0.595080748032945,15448
410,55.51707765,65.459065802296,Курган,0.6730796977024279,333640
411,44.884697100000004,40.589177299999996,Курганинск,0.5965457636841041,47974
412,45.22904129999999,147.8751845,Курильск,0.59114542861095,2070
413,51.739433,36.179604,Курск,0.6542295297016271,414595
414,54.909466,64.428383,Куртамыш,0.593916717453102,17098
415,51.6750974,35.6606580678712,Курчатов,0.577874423005468,42691
416,55.336521,59.445938,Куса,0.59922145488449,18792
417,58.28175699999999,59.762329,Кушва,0.6054526742813829,33027
418,51.7190995,94.4300627,Кызыл,0.6297424269777679,109906
419,55.723192000000004,60.3671048259304,Кыштым,0.594993548211425,38950
420,44.6347953,40.7242185,Лабинск,0.600225404268282,62822
421,66.6596392,66.3861831,Лабытнанги,0.598044083645186,26948
422,43.9102991,39.331753799999994,Лазаревское,0.45706509348825297,92662
423,55.4043358,49.546837599999996,Лаишево,0.5920171885391011,7735
424,56.01509300000001,39.946558,Лакинск,0.592337870147841,15707
425,61.247257,75.189278,Лангепас,0.596522779384239,41675
426,61.5179265,30.203892699999997,Лахденпохья,0.5951513060250501,7818
427,53.012614600000006,39.127593,Лебедянь,0.588975498982342,20991
428,50.751953,78.53936800000001,Лениногорск,0.37528244556051893,64145
429,54.6442,86.1668,Ленинск,0.5754871951361961,15527
430,54.665443,86.166115,Ленинск-Кузнецкий,0.6940649062173561,101666
431,60.7145488,114.91721229999999,Ленск,0.6046116733265721,24955
432,58.63644,59.789657999999996,Лесной,0.610381308736396,52464
433,45.4747744,133.4182158,Лесозаводск,0.599111338008006,36975
434,58.223511,92.48597,Лесосибирск,0.601806904893907,61146
435,52.4253859,37.6089,Ливны,0.597684185399897,50430
436,52.6041877,39.5936899,Липецк,0.639632675383123,508124
437,50.982079,39.496941,Лиски,0.598801959950265,55864
438,57.1244437,35.4665276,Лихославль,0.5966376152649979,12259
439,56.0104473,37.4670831,Лобня,0.612047640248726,74350
440,60.7339323,33.545773100000005,Лодейное Поле,0.6993445121737478,21053
441,43.7038,39.5842,Лоо,0.3799894954902361,8091
442,58.732,29.85,Луга,0.55,36409
443,60.630329,47.255404999999996,Луза,0.5914706663017,11262
444,55.034820999999994,44.492725,Лукоянов,0.591245684671076,14949
445,54.9655573,39.027718799999995,Луховицы,0.6091013122249019,29849
446,56.027885,45.038315000000004,Лысково,0.5951982998507139,21882
447,58.09963345,57.7964506389877,Лысьва,0.5939886199299,67712
448,51.65978675,35.26115591482711,Льгов,0.5823624689904631,21452
449,59.346325,31.244207,Любань,0.602852965296036,4188
450,58.35762,40.691818,Любим,0.5865104044916489,5553
451,53.8647156,34.4478141,Людиново,0.591942947535096,40550
452,59.56047679999999,150.79886169999997,Магадан,0.6416661167757459,95925
453,53.4242184,58.983136,Магнитогорск,0.648875003056926,408401
454,44.606207899999994,40.104053,Майкоп,0.617581373455144,144055
455,43.62865135,44.0559924880066,Майский,0.583857951092402,26755
456,48.61,142.7835,Макаров,0.40955290049906107,6788
457,57.880402000000004,43.80724,Макарьев,0.5854740830952071,7114
458,57.797325,35.87904,Максатиха,0.4649349340745129,7485
459,55.208321,67.252739,Макушино,0.593386853780725,8337
460,58.844215000000005,32.218636,Малая Вишера,0.681992451472996,12461
461,52.399578000000005,36.504021,Малоархангельск,0.5846991706945711,3872
462,55.012181000000005,36.459024600000006,Малоярославец,0.601468380736975,30401
463,57.66301899999999,112.53671659999999,Мама,0.46,14432
464,55.7090757,51.4089032,Мамадыш,0.594513357150021,14432
465,51.83413770000001,85.744008,Манжерок,0.435,1500
466,58.333270999999996,44.761790999999995,Мантурово,0.5852812664929771,17479
467,56.206299,87.75125899999999,Мариинск,0.602665979953099,40522
468,51.7069911,46.748365299999996,Маркс ,0.5969123515269411,31500
469,42.9830241,47.5048717,Махачкала,0.665574508553076,577990
470,53.0591919,32.8500077,Мглин,0.590082774710875,7916
471,61.03540400000001,76.108215,Мегион,0.59922145488449,49471
472,62.915024,34.473339,Медвежьегорск,0.5931444924799251,15536
473,51.4049435,57.58031379999999,Медногорск,0.5866454744544809,27253
474,54.9695,35.857,Медынь,0.5920419156806049,8298
475,53.68637629999999,88.0703443,Междуреченск,0.6069653222393571,101995
476,55.33683739999999,41.631406299999995,Меленки,0.590818465513237,15208
477,52.8989248,55.849003599999996,Мелеуз,0.435,61408
478,55.8878706,52.308443,Менделеевск,0.593892731307879,22075
479,55.7255585,53.107181499999996,Мензелинск,0.597049261763261,16474
480,54.3207145,35.279633399999994,Мещовск,0.5905151060851701,4101
481,55.065304000000005,60.108337,Миасс,0.620422520469719,151812
482,62.358238,50.08218,Микунь,0.5864292201997271,10732
483,48.9196264,40.391853999999995,Миллерово,0.602977307771377,36493
484,44.2107377,43.134969,Минеральные Воды,0.70105688912741,76715
485,53.700325,91.69723499999999,Минусинск,0.612899469290669,71171
486,55.070913899999994,57.54850210000001,Миньяр,0.5980216514704629,10195
487,62.541077,113.97858400000001,Мирный,0.607947149145931,37179
488,54.230217,39.027538,Михайлов,0.592974270712376,11783
489,50.0796329,43.234387700000006,Михайловка,0.5940843595986629,59153
490,56.444538,59.124191,Михайловск,0.601510798081644,9215
491,52.8946613,40.507172100000005,Мичуринск,0.602478425592182,98758
492,53.7335417,119.7648554,Могоча,0.5965457636841041,13228
493,55.50163829999999,36.0334703,Можайск,0.632431933582395,31388
494,56.44273520000001,52.213852100000004,Можга,0.5911705079192809,47959
495,43.735584,44.653614000000005,Моздок,0.604105574248771,38748
496,48.352379,41.828762,Морозовск,0.594844969629969,27644
497,53.44001255,41.7996583166198,Моршанск,0.581942947535096,41550
498,54.48729300000001,34.978953999999995,Мосальск,0.59114542861095,4285
499,55.479204599999996,37.3273304,Москва,0.900819328283346,11514330
500,58.184208,94.694298,Мотыгино,0.436548011937258,5902
501,59.39510179999999,48.9644445,Мураши,0.588897499732059,6752
502,68.970665,33.07497,Мурманск,0.6776800241926229,307664
503,55.5738,42.0447,Муром,0.631552748722759,116078
504,53.278983999999994,36.576077000000005,Мценск,0.599419170824627,43216
505,53.71386,87.80031600000001,Мыски,0.5952687234722089,43029
506,55.909492799999995,37.7339358,Мытищи,0.638328298366569,173341
507,55.742011700000006,52.3992173,Набережные Челны,0.718918939453361,513242
508,55.544070999999995,42.188671,Навашино,0.5912957516107691,16413
509,65.5336238,72.51139549999999,Надым,0.597729287779789,46550
510,56.011593000000005,90.418503,Назарово,0.601468380736975,52829
511,43.232077399999994,44.7540128,Назрань,0.6055718859227521,93357
512,55.564896,71.349365,Называевск,0.594560839740484,12119
513,43.4883695,43.610560193588,Нальчик,0.6469680252625201,240095
514,46.692261,47.851238,Нариманов,0.584782664587727,11386
515,55.3879473,36.7398309,Наро-Фоминск,0.711228386808057,64640
516,43.55299395,43.8540412039357,Нарткала,0.5855290629377221,31679
517,67.6380175,53.0071044,Нарьян-Мар,0.7027229731810141,21296
518,42.8246489,132.8926,Находка,0.6204381176858901,159695
519,56.017616000000004,29.917128,Невель,0.6186822703790329,16324
520,44.624581400000004,41.947594099999996,Невинномысск,0.6051336446496041,118351
521,57.492403599999996,60.2105408,Невьянск,0.6060464399467571,25147
522,56.226096999999996,32.771111,Нелидово,0.599045173321703,22886
523,57.460655,40.573799,Нерехта,0.588558357631089,22817
524,56.65794350000001,124.71230420000002,Нерюнгри,0.6079853352682011,61746
525,56.088403099999994,54.2478094,Нефтекамск,0.607640805430429,121757
526,44.752205,44.985077000000004,Нефтекумск,0.5885060158875,27700
527,61.090309,72.6101,Нефтеюганск,0.6198268822690739,123276
528,58.288948,43.886444,Нея,0.5835182218020389,9827
529,55.783573,109.571762,Нижнеангарск,0.45030088440925004,4520
530,60.9339411,76.58142740000001,Нижневартовск,0.620297600438359,251860
531,55.641287899999995,51.8160376,Нижнекамск,0.6179072129630849,234108
532,54.90848810000001,99.0302862,Нижнеудинск,0.604288249038967,37056
533,56.6619,59.30003000000001,Нижние Серги,0.6918912461994019,11217
534,53.529991,43.673626,Нижний Ломов,0.6772897214290521,22678
535,56.328571,44.003506,Нижний Новгород,0.8125881731728899,1250615
536,57.905149,59.9508466,Нижний Тагил,0.743440348450935,361883
537,58.618427000000004,59.867397,Нижняя Тура,0.693348837090919,21596
538,50.031459999999996,45.454487,Николаевск,0.5905151060851701,15081
539,53.138729000000005,140.72493,Николаевск-на-Амуре,0.800929643308547,22773
540,53.71459599999999,46.085175,Никольск,0.5848382644105079,8515
541,59.052733999999994,60.595974,Новая Ляля,0.691975472245134,12400
542,58.52672495,31.251195526374197,Новгород Великий,0.201,222868
543,53.809017000000004,58.643627,Новоабзаково,0.442701719497591,1331
544,45.4952532,41.2198866,Новоалександровск,0.5891830156745921,26759
545,53.39334100000001,83.93940699999999,Новоалтайск,0.5978643972223641,73134
546,50.529675,42.667362,Новоаннинский,0.59015928918299,17911
547,52.537085999999995,31.933670000000003,Новозыбков,0.5988683861101409,40552
548,53.75760699999999,87.136101,Новокузнецк,0.6496274015808511,547885
549,53.09924300000001,49.948364,Новокуйбышевск,0.598801959950265,108449
550,44.2533593,38.8447977,Новомихайловский,0.4664710235379779,10858
551,54.043011,39.744011,Новомичуринск,0.5841115247503721,19309
552,43.961890999999994,43.6311,Новопавловск,0.587715508264983,26556
553,57.031181000000004,29.332918,Новоржев,0.590006165130629,3695
554,44.7239578,37.7690711,Новороссийск,0.647743919553067,241788
555,55.0282171,82.9234509,Новосибирск,0.718438034771972,1498921
556,52.972939000000004,37.041908,Новосиль,0.590641687356554,3799
557,56.347384999999996,30.152925,Новосокольники,0.5924607662989749,8119
558,51.196369,58.298527,Новотроицк,0.5968666471130021,97914
559,50.462326000000004,48.135532,Новоузенск,0.5892606546511059,17015
560,57.247046999999995,60.09581800000001,Новоуральск,0.61636056331778,91813
561,51.095146,41.616955,Новохопёрск,0.41,6849
562,56.114002299999996,47.4870341,Новочебоксарск,0.60203856632951,124094
563,47.41066,40.101986,Новочеркасск,0.64837155629697,169039
564,47.7558886,39.935987,Новошахтинск,0.601191954124949,111087
565,50.764427000000005,37.863338,Новый Оскол,0.679595964618928,19530
566,66.085196,76.6799167,Новый Уренгой,0.698913580129181,104144
567,51.7953617,143.13650769999998,Ноглики,0.467784396815435,10151
568,69.34983940000001,88.200517,Норильск,0.6429998248534461,175301
569,63.2002917,75.4475807,Ноябрьск,0.602499293173005,110572
570,54.4297351,50.8019579,Нурлат,0.594275393922464,32600
571,57.943422999999996,55.33163489999999,Нытва,0.5895187471529421,19041
572,63.286648,118.35414899999999,Нюрба,0.60203856632951,10156
573,62.144636,65.4347572,Нягань,0.601933373610046,54903
574,56.055507999999996,59.598629,Нязепетровск,0.5989347407543101,12452
575,61.6612985,40.1970404,Няндома,0.591019878762334,22354
576,49.014514899999995,131.0538038,Облучье,0.581965831167331,9379
577,55.09992175,36.6092733472383,Обнинск,0.608954449231389,104798
578,51.211079,36.276245,Обоянь,0.5918934038030289,13562
579,54.9859,82.7126,Обь,0.608913204678366,26137
580,54.803036399999996,38.273946200000005,Ожерелье,0.594915797907489,10540
581,55.334234200000004,76.9433418,Озеро-Карачинское,0.201,1507
582,55.760459999999995,60.705101,Озёрск,0.611075045674712,4740
583,54.854209,38.5598853,Озёры,0.606419554225707,25788
584,54.480972200000004,53.4660062,Октябрьский,0.602394884543305,109379
585,58.3740782,33.300938300000006,Окуловка,0.5925343865339351,12464
586,68.140732,33.282596999999996,Оленегорск,0.51684965102717,23079
587,69.0128038,117.76664869999999,Оленёк,0.491776066939633,2273
588,60.979276,32.9749376,Олонец,0.605333231609556,9060
589,60.373016,120.438751,Олёкминск,0.604913349892532,9487
590,63.4180703,158.9963689,Омолон,0.435,873
591,54.991375,73.37152900000001,Омск,0.704813026275111,1154000
592,62.51276429999999,155.7823514,Омсукчан,0.410938798149577,3707
593,63.9110736,38.095613799999995,Онега,0.597954305917189,21359
594,56.71167,28.656817999999998,Опочка,0.6014259341792549,11601
595,51.767452,55.097118,Оренбург,0.671243876579828,570329
596,55.808327799999994,38.979003799999994,Орехово-Зуево,0.7207796309924119,120620
597,51.2305015,58.4738015,Орск,0.612101225876828,238006
598,52.96854329999999,36.0692477,Орёл,0.679852982732133,317854
599,57.282920700000005,55.4602059,Оса,0.591045009200755,22420
600,57.15554470000001,33.102665,Осташков,0.6079662451644791,18073
601,57.34463100000001,28.357816999999997,Остров,0.609772452062257,21670
602,50.864902,39.077244,Острогожск,0.5978868866951079,33842
603,53.376175,51.348053,Отрадный,0.586130626181158,47709
604,53.589108200000005,142.9497542,Оха,0.598824109959262,23007
605,59.364392099999996,143.2410816,Охотск,0.556874063573657,3298
606,57.88361750000001,54.715823,Очёр,0.5887412044681489,15003
607,53.787865000000004,39.242053999999996,Павелец,0.40025964622405796,1591
608,55.965137,43.071114,Павлово,0.5968209087811271,60699
609,59.684853000000004,30.433264,Павловск,0.6170234618768751,25126
610,46.1352557,39.782918,Павловская,0.49543847492216797,65842
611,55.78133570000001,38.6507838,Павловский Посад,0.7027759751043371,63771
612,50.045901,46.88963820000001,Палласовка,0.587502982539317,15984
613,43.1413275,133.1436968,Партизанск,0.600160425454279,38648
614,69.7028171,170.2746851,Певек,0.604571337985229,4161
615,53.200001,45.0,Пенза,0.650389913781275,519592
616,56.9403,32.7353,Пено,0.49432877001305797,3661
617,54.866649100000004,43.8054106,Первомайск,0.5897501099248871,14567
618,56.904858,59.943118999999996,Первоуральск,0.618392764839225,149800
619,55.596546,44.544846,Перевоз,0.5909192544144761,9201
620,56.736610399999996,38.846282099999996,Переславль-Залесский,0.6646483263845091,41923
621,58.014965000000004,56.246722999999996,Пермь,0.693887116894582,1000679
622,58.6000449,35.814472200000004,Пестово,0.588897499732059,15911
623,50.139621999999996,45.2141,Петров Вал,0.676834076479519,13264
624,52.3094494,45.3889831,Петровск,0.5940365083545109,31158
625,51.275215,108.85448500000001,Петровск-Забайкальский,0.6927491545937561,18555
626,61.790039,34.390007000000004,Петрозаводск,0.652963783285788,263540
627,53.0199693,158.6472187,Петропавловск-Камчатский,0.7362848565904391,179526
628,55.064663,67.88715400000001,Петухово,0.5899806074278481,11291
629,55.931031299999994,39.4599489,Петушки,0.593844730994415,15167
630,65.12825625,57.138231414978,Печора,0.5954795128072049,43458
631,57.81330500000001,27.608185,Печоры,0.603431095894418,12308
632,59.5129787,34.1773573,Пикалёво,0.601701315696636,21567
633,61.571780700000005,31.4744211,Питкяранта,0.595945368383981,11484
634,54.369811999999996,60.807091,Пласт,0.595174807416897,17344
635,57.459187,41.511353,Плёс,0.5920419156806049,2341
636,51.199276,42.24094,Поворино,0.5842238901404251,17692
637,55.4308841,37.545305600000006,Подольск,0.6332354299413521,187956
638,60.914291000000006,34.162354,Подпорожье,0.5968209087811271,18729
639,61.744116399999996,75.5968105,Покачи,0.41,17053
640,55.918616899999996,39.17055070000001,Покров,0.584027116064219,17762
641,56.442108,60.165859,Полевской,0.601764690920084,64316
642,67.374084,32.495792,Полярные Зори,0.579469387767602,15106
643,49.221636600000004,143.1015759,Поронайск,0.596061284158929,16461
644,57.765289,29.551878000000002,Порхов,0.5886629079519581,10608
645,53.646797,52.123344,Похвистнево,0.58079016558367,28181
646,52.92878,33.454536,Почеп,0.588479828336916,17933
647,54.404776,32.4407898,Починок,0.5860761805951329,8776
648,50.477947,71.09135400000001,Пржевальское,0.4158720222757679,1438
649,57.38033299999999,41.281178000000004,Приволжск,0.582718160876804,16749
650,62.54525400000001,65.64843,Приобье,0.42356076917903007,7327
651,53.890972,86.737663,Прокопьевск,0.6029358881465839,210150
652,46.700161,41.724078999999996,Пролетарск,0.5865914819855239,20267
653,54.8707703,37.2188629,Протвино,0.604812955018773,37308
654,43.759001700000006,44.0103981,Прохладный,0.584195817992651,59595
655,61.6932537,33.6224108,Пряжа,0.44569549296757305,3487
656,44.1092655,40.7902989,Псебай,0.43435222349624103,10839
657,57.817398,28.334367999999998,Псков,0.658275881125576,203974
658,52.012125299999994,48.810979499999995,Пугачёв,0.588845445337603,41705
659,61.808434,36.536045,Пудож,0.588164706733311,9698
660,56.3350632,29.3684565,Пустошка,0.5837731941695251,4619
661,56.982048,43.168003000000006,Пучеж,0.582400987595252,8583
662,56.0104274,37.846189200000005,Пушкино,0.608460676197388,102840
663,54.8347213,37.6139685,Пущино,0.6067904233061729,20263
664,57.06290799999999,27.921060999999998,Пыталово,0.5857211070706729,5826
665,60.755116,72.83998100000001,Пыть-Ях,0.6829742707123759,41453
666,44.039775,43.0706669,Пятигорск,0.617237377774935,142397
667,62.135315000000006,77.462616,Радужный,0.5930715978536011,18212
668,52.658699,41.879002,Рассказово,0.5808494845481851,45484
669,56.800065100000005,59.908668799999994,Ревда,0.598824109959262,61713
670,57.370647,61.4042865,Реж,0.600376755614508,38709
671,56.259262,34.330151,Ржев,0.5737234927491079,62026
672,57.105225,41.728390000000005,Родники,0.582458777003492,26318
673,53.9448678,32.8479317285327,Рославль,0.5978868866951079,54898
674,50.1961874,39.5764857,Россошь,0.5865104044916489,62865
675,57.1692627,39.3583565,Ростов Великий,0.201,30969
676,47.22138579999999,39.7114196,Ростов-на-Дону,0.882080064866683,1091544
677,55.65832389999999,39.87171370000001,Рошаль,0.599397233682778,21265
678,52.259884,43.787853000000005,Ртищево,0.5886367869940029,41295
679,51.527626399999995,81.21761740000001,Рубцовск,0.6031220576435179,146386
680,54.9471458,31.090628600000002,Рудня,0.5862393732748721,10029
681,55.6998907,36.1946992,Руза,0.602790699859483,13495
682,54.058735,44.954390999999994,Рузаевка,0.5857211070706729,47529
683,58.050373,38.834637,Рыбинск,0.628235646430594,200771
684,54.726841500000006,39.508861200000005,Рыбное,0.5807604846780289,18378
685,53.708878000000006,40.062984,Ряжск,0.5833761133706861,21676
686,54.6295687,39.742503899999996,Рязань,0.6533672701564711,525062
687,45.1319466,33.6001281,Саки,0.537323496940214,23400
688,67.799362,130.403229,Саккырыр,0.469105622281867,1722
689,53.361686999999996,55.924641,Салават,0.5968666471130021,156085
690,66.5375387,66.6157469,Салехард,0.5647474917228471,42494
691,61.368728299999994,31.867289500000002,Салми,0.462151062176819,2187
692,46.476669,41.541008000000005,Сальск,0.592607918934035,61312
693,53.198627,50.113987,Самара,0.66695356600104,1164900
694,58.461376,36.411373,Сандово,0.43806987689797794,6797
695,59.960673899999996,30.158655100000004,Санкт-Петербург,0.9232130301528871,4848742
696,54.18671,45.18383,Саранск,0.624525824699421,297425
697,56.477334,53.819295700000005,Сарапул,0.5930715978536011,101390
698,51.530018,46.034683,Саратов,0.659784981108812,836900
699,54.934631,43.334606,Саров,0.6059084053999829,92073
700,71.96495329999999,114.09394329999999,Саскылах,0.40807165796715295,2317
701,54.353919999999995,41.926643,Сасово,0.5817909046562261,28117
702,55.040287,59.028034,Сатка,0.5966834897735339,45465
703,55.108427799999994,33.2376513,Сафоново,0.586375037867119,46116
704,53.0899015,91.4128377,Саяногорск,0.5927791541287671,49889
705,54.1123301,102.1785158,Саянск,0.595432732995189,40786
706,66.9127,88.3706499,Светлогорск (Красноярск.),0.32043043518689396,876
707,45.340613299999994,42.8459286,Светлоград,0.5854740830952071,38520
708,51.377354,128.13475,Свободный,0.5907427655249621,58594
709,56.289339299999995,28.482557500000002,Себеж,0.588164706733311,6375
710,44.6054434,33.5220842,Севастополь,0.718960520799665,344479
711,60.374702,93.032997,Северо-Енисейский,0.517964956585921,6747
712,55.635967,109.33564799999999,Северобайкальск,0.595759448486215,24935
713,64.563385,39.823769,Северодвинск,0.61622712370003,192265
714,60.15016,59.960517,Североуральск,0.598624472716381,29279
715,52.156021,34.494572,Севск,0.589105278772078,7282
716,63.4086094,33.9933369,Сегежа,0.435,29660
717,69.152888,130.4463475,Сеймчан,0.435,2064
718,47.516393,40.8122575,Семикаракорск,0.587343105927299,23884
719,56.78834200000001,44.49155,Семёнов,0.5866184841324499,24472
720,49.580608000000005,42.730164,Серафимович,0.5859671449198609,9368
721,55.529616000000004,45.4754305,Сергач,0.586860972573933,21387
722,56.3153529,38.1358208,Сергиев Посад,0.7194197435214351,110878
723,52.46150600000001,44.213924,Сердобск,0.5823431439501121,35393
724,59.605190500000006,60.574043,Серов,0.605253474368568,99381
725,54.9155247,37.4195533,Серпухов,0.623895046095117,126496
726,52.720425,58.665466,Сибай,0.5940843595986629,62732
727,48.781075200000004,142.86213080000002,Сим,0.325,14465
728,44.4059623,34.0050679,Симеиз,0.5338642580813471,3916
729,44.9521457,34.1024858,Симферополь (Крым),0.772025377312302,332317
730,56.71934920000001,40.6660219,Синяя Осока,0.475,132
731,53.986256700000006,123.93734540000001,Сковородино,0.5932173009932621,9561
732,53.823524,39.549274,Скопин,0.5845318428106899,30374
733,52.983332999999995,78.666667,Славгород,0.484296306132559,30370
734,59.733169999999994,30.46667,Славянка,0.364463378933884,65000
735,45.2590875,38.1244609,Славянск-на-Кубани,0.7904199306771301,63768
736,59.117259999999995,28.086979,Сланцы,0.598066507658303,33587
737,55.513577100000006,109.20477749999999,Слюдянка,0.435,18542
738,54.77897005,32.0471812191561,Смоленск,0.686797543825562,326863
739,56.087008999999995,60.732673999999996,Снежинск,0.606575981719255,48896
740,48.966297,140.28495800000002,Советская Гавань,0.687796879524132,27712
741,61.362099,63.57354,Советский,0.50975765213835,26434
742,59.4617,40.1166,Сокол,0.4885577830081189,38454
743,59.649437,56.779593999999996,Соликамск,0.5998562818722379,97239
744,56.18535010000001,36.9781536,Солнечногорск,0.6062234598847429,52996
745,51.161289000000004,54.996371999999994,Соль-Илецк,0.67320514960122,26308
746,58.119003,30.309679,Сольцы,0.5843080299478579,10317
747,57.7809325,37.1653992,Сонково,0.45728560320245,3737
748,52.426971,53.154175,Сорочинск,0.5825165122764471,30136
749,54.0834652,90.0184549555963,Сорск,0.55,12140
750,61.702740000000006,30.691231,Сортавала,0.6144827739586021,19215
751,54.05161429999999,35.9589929,Сосенский,0.5834329960691149,12394
752,56.2573802,51.2842677,Сосновка,0.583886177518072,11960
753,63.58523435,53.9004017501668,Сосногорск,0.5862393732748721,27809
754,43.585482299999995,39.723109,Сочи,0.73686030894163,343285
755,54.4118,34.032398,Спас-Деменск,0.6767533177004961,4904
756,55.130867,40.176037,Спас-Клепики,0.5,5917
757,44.5980135,132.815701,Спасск,0.588468750996432,7442
758,44.5980135,132.815701,Спасск-Дальний,0.688468750996432,44166
759,67.455497,153.7071456,Среднеколымск,0.60134095326352,3525
760,52.243190999999996,117.69554099999999,Сретенск,0.595033664455886,6850
761,45.0433245,41.9690934,Ставрополь,0.6400878650398779,398266
762,57.989892299999994,31.3634905,Старая Русса,0.6932458589560639,32235
763,56.5081105,34.93147379999999,Старица,0.591520550885057,8610
764,52.584446,32.760098,Стародуб,0.599155408370537,19010
765,46.53594879999999,39.0625056,Староминская,0.46628109303521204,42500
766,51.298038,37.833202,Старый Оскол,0.6912558550113089,221163
767,53.632374,55.952259,Стерлитамак,0.606360791406027,273432
768,60.732758,77.60080699999999,Стрежевой,0.5897757633693249,42216
769,56.373999999999995,38.586,Струнино,0.5840834013643621,14372
770,54.886598,38.0772589,Ступино,0.607640805430429,66942
771,44.8488369,34.971099,Судак,0.5699849718833311,15368
772,51.190708,35.270855,Суджа,0.5834329960691149,6036
773,55.9515703,40.8586886,Судогда,0.585004763564552,11848
774,56.419390799999995,40.4487893,Суздаль,0.587502982539317,10535
775,63.110357900000004,140.85077980000003,Сунтар,0.435,9826
776,62.082009400000004,32.345856,Суоярви,0.589467215043441,9763
777,53.013150100000004,32.393163300000005,Сураж,0.5864292201997271,11640
778,61.254031999999995,73.3964,Сургут,0.6212745591658461,306703
779,48.605140999999996,42.844147,Суровикино,0.583262190234049,20527
780,62.779731999999996,148.15361000000001,Сусуман,0.590994738072868,5865
781,54.099658999999996,35.345821,Сухиничи,0.587209557880739,16295
782,56.9047389,62.0350233,Сухой Лог,0.68952873956348,34836
783,53.09579215,48.3940572827098,Сызрань,0.591785801521205,178773
784,61.66852370000001,50.8352024,Сыктывкар,0.587369780846292,235006
785,56.503017500000006,60.809321499999996,Сысерть,0.598535537059719,20594
786,55.8269908,34.2770455,Сычёвка,0.588767281218854,8111
787,60.1397073,32.5637502,Сясьстрой,0.596775136480937,13747
788,58.0413743,65.2719986,Тавда,0.601996510784124,35421
789,47.2153657,38.9285216,Таганрог,0.648421096046742,257692
790,56.065070999999996,85.631325,Тайга,0.5940843595986629,25330
791,55.9385304,98.01967109999998,Тайшет,0.604125898205879,35481
792,56.355515000000004,114.83798200000001,Таксимо,0.414123468139824,8114
793,49.7215861,131.90679550000002,Талакан,0.435,4345
794,56.730941,37.528016,Талдом,0.601489593058427,13819
795,57.014816,63.73024399999999,Талица,0.598757636036544,18339
796,52.728790000000004,41.45536,Тамбов,0.6078324486177149,280457
797,56.902587,74.3698652,Тара,0.593604167069278,26664
798,54.729353599999996,37.181553799999996,Таруса,0.588975498982342,9656
799,55.216961,75.96219599999999,Татарск,0.593844730994415,26114
800,56.858675,35.9208284,Тверь,0.6524278460011379,403726
801,56.8554753,40.540586299999994,Тейково,0.583574973555011,34993
802,54.631496,43.210983,Темников,0.583603329846918,7247
803,45.275166299999995,37.390548100000004,Темрюк,0.601510798081644,38014
804,43.4833175,44.13865525752979,Терек,0.580552317148115,19170
805,71.636604,128.868546,Тикси,0.542450490278609,8440
806,45.6123531,38.9504299,Тимашёвск,0.584774059862562,53921
807,59.644323,33.5418624,Тихвин,0.610856813286042,58843
808,45.854679,40.128124,Тихорецк,0.597954305917189,61825
809,58.199804799999995,68.25129240000001,Тобольск,0.630515340710182,99698
810,55.23769,84.402458,Тогучин,0.5914956136403821,21531
811,65.789,87.9624,Толька,0.325,4662
812,53.51495,49.407574,Тольятти,0.635621498217583,719484
813,58.968536,126.266853,Томмот,0.599769107318281,8054
814,58.6124279,82.04753149999999,Томск,0.646546876659938,522940
815,55.2751962,85.62287409999999,Топки,0.591345777911708,28642
816,57.04079399999999,34.973372999999995,Торжок,0.603245858956064,47702
817,56.496479,31.641077000000003,Торопец,0.594750405132135,13018
818,59.5412777,30.877364500000002,Тосно,0.6031220576435179,39127
819,59.97585600000001,42.7568023,Тотьма,0.585857916004479,9784
820,54.084548999999996,61.551991,Троицк,0.60041993067713,78637
821,54.8151264,58.446627299999996,Трёхгорный,0.601680176132246,33678
822,44.098474700000004,39.0718875,Туапсе,0.616990485739453,63233
823,54.606537,53.69740039999999,Туймазы,0.590312033745365,66849
824,54.1942,37.6165,Тула,0.5479033764789351,501129
825,54.562096,100.579216,Тулун,0.5978418995402839,44603
826,58.3522,59.8223,Тура,0.611275101764309,9468
827,52.145809299999996,93.91864340000001,Туран,0.592901174361401,4988
828,58.041454,63.697552,Туринск,0.5995725125762379,17990
829,65.7934285,87.9589375,Туруханск,0.51784642314719,6183
830,57.875384999999994,39.527214,Тутаев,0.591320769836959,41001
831,55.149694,124.7375884,Тында,0.5975712848382421,35574
832,55.87055600000001,72.196617,Тюкалинск,0.59015928918299,12050
833,57.15353399999999,65.542274,Тюмень,0.6323805625443121,581758
834,51.989845,42.258396000000005,Уварово,0.58025370997789,26829
835,57.526782999999995,38.316689000000004,Углич,0.602436669222446,34505
836,66.41176800000001,112.2517294,Удачный,0.599484935439836,12611
837,57.877998,35.0042,Удомля,0.5887933469411171,31048
838,55.3197221,89.84241970000001,Ужур,0.5949865448822049,16079
839,53.978512,38.160255,Узловая,0.5848660455240601,55282
840,51.835784100000005,107.5839105,Улан-Удэ,0.706059916871015,404357
841,54.146317700000004,47.2324921,Ульяновск,0.641737227394931,613793
842,52.8451,32.6867,Унеча,0.5870489173048989,26196
843,60.12911999999999,64.803627,Урай,0.5941560668776921,39435
844,57.46149739999999,45.7878911,Урень,0.480337573999847,12311
845,57.1101118,50.0003067,Уржум,0.5856114408506851,10213
846,50.7970972,42.0051866,Урюпинск,0.5865104044916489,41594
847,65.995731,57.5571267,Усинск,0.58800653966779,41100
848,52.0506929,39.739999600000004,Усмань,0.580552317148115,18752
849,52.75120129999999,103.6621625,Усолье-Сибирское,0.689943333298253,83364
850,43.79724470000001,131.9520752,Уссурийск,0.6167922575352099,157946
851,57.959472999999996,102.73419200000001,Усть-Илимск,0.690978471405883,86591
852,54.9307169,58.1743686,Усть-Катав,0.6872086069288841,23586
853,58.00614655,55.6778824012519,Усть-Качка,0.201,4350
854,50.269592700000004,85.6155842,Усть-Кокса,0.483827688081076,16317
855,70.00177,135.549835,Усть-Куйга,0.530717976780999,681
856,56.7803671,105.74649369999999,Усть-Кут,0.690290314647502,45061
857,45.2178027,39.6896725,Усть-Лабинск,0.684132173720047,43268
858,64.566376,143.23783899999998,Усть-Нера,0.565944602680225,5173
859,65.438683,52.156208,Усть-Цильма,0.478015094618814,4877
860,58.843136,36.429728999999995,Устюжна,0.584782664587727,9478
861,54.726288000000004,55.947727,Уфа,0.664933872525562,1062300
862,63.58317295,53.72050473868279,Ухта,0.6008500259282591,99642
863,54.316596999999994,59.384636,Учалы,0.592852395253693,37771
864,55.809986,94.327774,Уяр,0.595432732995189,12666
865,52.089344,35.859486,Фатеж,0.582947811442921,5404
866,45.033669,35.3753628,Феодосия,0.628564572624909,69786
867,42.977208399999995,132.404905,Фокино (ЗАТО),0.700914282128039,23100
868,49.7653307,43.664987870316,Фролово,0.574587669263214,39489
869,57.24875600000001,41.10923,Фурманов,0.582947811442921,36149
870,48.481403,135.07693500000002,Хабаровск,0.6544454682560921,577668
871,44.4231032,39.5369484,Хадыженск,0.590337454409521,21580
872,62.6477939,135.57509419999997,Хандыга,0.468705675544455,6095
873,61.00346,69.01915699999999,Ханты-Мансийск,0.7237778944346159,79410
874,47.408374200000004,47.2538899,Харабали,0.5799837209385159,18209
875,59.953323700000006,40.2068249,Харовск,0.41,10078
876,43.246916,46.5855184,Хасавюрт,0.551100392955434,133929
877,71.9819205,102.4714765,Хатанга,0.48998949549023607,4684
878,52.495499,48.105888,Хвалынск,0.5882699263907449,13199
879,51.3628436,110.45797490000001,Хилок,0.594370689495176,11530
880,55.889284700000005,37.4449896,Химки,0.635876957062901,207125
881,57.1446,31.1833,Холм,0.533581063804351,3829
882,66.455612,143.223007,Хонуу,0.409042266993274,2476
883,43.523636200000006,39.874407399999996,Хоста,0.435,78533
884,53.126518000000004,35.398109000000005,Хотынец,0.3873340667019621,3755
885,56.25412339999999,37.990810700000004,Хотьково,0.60172244801276,21612
886,55.8661072,47.473703,Цивильск,0.5848104707688321,13478
887,47.650585,42.098232,Цимлянск,0.586456293514185,15029
888,56.7787468,54.150070400000004,Чайковский,0.599419170824627,82933
889,52.981285,49.711193,Чапаевск,0.584671314242403,72689
890,53.243015,39.966801000000004,Чаплыгин,0.5800438207963959,12656
891,56.7902,118.2732,Чара,0.46,3973
892,54.97779499999999,60.370090000000005,Чебаркуль,0.598468750996432,43405
893,56.1307195,47.2449597,Чебоксары,0.6418426824094791,447929
894,55.15984079999999,61.4025547,Челябинск,0.665910992005991,1130273
895,51.21651129999999,86.44410429999999,Чемал,0.435,4011
896,53.148433999999995,103.070145,Черемхово,0.41,52650
897,54.226101,83.370468,Черепаново,0.59211603763707,19346
898,59.128696,37.916389,Череповец,0.613757068693384,312311
899,53.828236,91.31321,Черногорск,0.5917941967001229,72117
900,55.2449588,73.0239806,Чернолучье,0.385,258
901,45.508596999999995,32.707775,Черноморское,0.47723201031168394,11379
902,56.500682,56.0762788,Чернушка,0.5856114408506851,33275
903,68.74390845,161.330807809303,Черский,0.519712984743276,2555
904,55.1426603,37.454532799999996,Чехов,0.61123821435197,60677
905,55.3714831,50.6367311,Чистополь,0.597072050596714,60703
906,52.033409000000006,113.50089299999999,Чита,0.619431852078288,323964
907,70.61924,147.902161,Чокурдах,0.4705079208970539,2085
908,59.1194805,31.6665918,Чудово,0.5862393732748721,16148
909,55.09,80.97045899999999,Чулым,0.5920171885391011,11964
910,54.842014899999995,83.05404623667201,Чумикан,0.435,1959
911,58.28205500000001,57.821075,Чусовой,0.5933142454086451,46740
912,58.79034025,56.1512192426979,Чёрмоз,0.585446574770995,4017
913,56.087364,63.629481999999996,Шадринск,0.5941799507762171,77744
914,55.535503000000006,89.186432,Шарыпово,0.41,38570
915,58.372569999999996,45.519306,Шарья,0.5843360510437591,23668
916,55.578403,39.543758399999994,Шатура,0.6046922649031059,32836
917,47.7119167,40.21156989999999,Шахты,0.6048732115652441,240152
918,57.6730182,46.615237799999996,Шахунья,0.587102510699034,21337
919,54.028687,41.712601,Шацк,0.5820240298490611,6562
920,51.851639,116.025894,Шилка,0.5937486180714321,13947
921,51.998702200000004,127.67191559999999,Шимановск,0.5930472804733791,19815
922,55.498516200000005,46.4186725,Шумерля,0.5855290629377221,33412
923,55.228207,63.282501,Шумиха,0.591120339093252,17821
924,53.327819999999996,91.945374,Шушенское,0.4541242743976261,17142
925,56.844101,41.379601,Шуя,0.591719686435913,58528
926,51.870821,36.9131896,Щигры,0.5834329960691149,17043
927,55.208907999999994,62.747772,Щучье,0.591520550885057,10971
928,61.919208999999995,159.235931,Эвенск,0.41,1404
929,46.306999,44.270187,Элиста,0.592165402797397,103728
930,51.501377500000004,46.1233093,Энгельс,0.602290298739534,202838
931,61.314970900000006,63.33159989999999,Югорск,0.593580058952651,34066
932,56.5840428,42.0109249,Южа,0.5823431439501121,14170
933,44.027075599999996,145.86137219999998,Южно-Курильск,0.5617388513859499,7863
934,46.9574273,142.72743799999998,Южно-Сахалинск,0.68545612733951,181727
935,44.662231,45.645138,Южно-Сухокумск,0.6803374544095209,10048
936,54.442536399999995,61.2682731,Южноуральск,0.595805981066283,37890
937,55.7136,84.934799,Юрга,0.5960381184381629,81536
938,56.497194799999995,39.67864,Юрьев-Польский,0.684679386419411,19588
939,57.318053000000006,43.1107007,Юрьевец,0.5848660455240601,10205
940,54.870075,58.427806999999994,Юрюзань,0.5954795128072049,12568
941,54.74157660000001,35.226439299999996,Юхнов,0.5895959646189279,7056
942,62.027287,129.732086,Якутск,0.634103594864071,269486
943,44.4970713,34.1586871,Ялта,0.6479039258720389,78040
944,56.654934,66.312752,Ялуторовск,0.509286093607089,36494
945,56.270759999999996,54.931702,Янаул,0.589467215043441,26988
946,57.301251199999996,47.8773055,Яранск,0.477391061753173,17252
947,52.919704,78.563568,Яровое,0.5920419156806049,18085
948,57.64955255,39.8748582716262,Ярославль,0.65676263979287,591486
949,55.0662279,32.6883609,Ярцево,0.5904136535530071,47853
950,48.0267,38.4834,Шахтерск,1.0,48759
